{
"type": "FeatureCollection",
"name": "acc_2020_N",
"crs": { "type": "name", "properties": { "name": "urn:ogc:def:crs:OGC:1.3:CRS84" } },
"features": [
{ "type": "Feature", "properties": { "field_1": 0, "type": "N", "inj": 1, "dead": 0, "lng": 98.33335, "lat": 8.026634, "address": "เทพกระษัตรี ถลาง ภูเก็ต", "accplace": "บ้านดอน", "accdate": "01\/01\/2020" }, "geometry": { "type": "Point", "coordinates": [ 98.33335, 8.026634 ] } },
{ "type": "Feature", "properties": { "field_1": 1, "type": "N", "inj": 1, "dead": 0, "lng": 98.284785, "lat": 7.949958, "address": "กมลา กะทู้ ภูเก็ต", "accplace": "กมลา", "accdate": "01\/01\/2020" }, "geometry": { "type": "Point", "coordinates": [ 98.284785, 7.949958 ] } },
{ "type": "Feature", "properties": { "field_1": 2, "type": "N", "inj": 1, "dead": 0, "lng": 98.336484, "lat": 7.84737, "address": "ฉลอง เมืองภูเก็ต ภูเก็ต", "accplace": "บริเวณฉลอง", "accdate": "01\/01\/2020" }, "geometry": { "type": "Point", "coordinates": [ 98.336484, 7.84737 ] } },
{ "type": "Feature", "properties": { "field_1": 3, "type": "N", "inj": 1, "dead": 0, "lng": 98.371719, "lat": 7.850205, "address": "ตลาดเหนือ เมืองภูเก็ต ภูเก็ต", "accplace": "พนาสนธิ์บ่อแร่", "accdate": "01\/01\/2020" }, "geometry": { "type": "Point", "coordinates": [ 98.371719, 7.850205 ] } },
{ "type": "Feature", "properties": { "field_1": 4, "type": "N", "inj": 1, "dead": 0, "lng": 98.336464, "lat": 7.847374, "address": "ฉลอง เมืองภูเก็ต ภูเก็ต", "accplace": "วัดฉลอง", "accdate": "01\/01\/2020" }, "geometry": { "type": "Point", "coordinates": [ 98.336464, 7.847374 ] } },
{ "type": "Feature", "properties": { "field_1": 5, "type": "N", "inj": 1, "dead": 0, "lng": 98.310222, "lat": 7.899248, "address": "ป่าตอง กะทู้ ภูเก็ต", "accplace": "ถนนพิศิษฐ์กรณีย์", "accdate": "01\/01\/2020" }, "geometry": { "type": "Point", "coordinates": [ 98.310222, 7.899248 ] } },
{ "type": "Feature", "properties": { "field_1": 6, "type": "N", "inj": 1, "dead": 0, "lng": 98.339598, "lat": 7.975064, "address": "ศรีสุนทร ถลาง ภูเก็ต", "accplace": "บริเวณหน้าวัดมานิก", "accdate": "01\/01\/2020" }, "geometry": { "type": "Point", "coordinates": [ 98.339598, 7.975064 ] } },
{ "type": "Feature", "properties": { "field_1": 7, "type": "N", "inj": 1, "dead": 0, "lng": 98.34052, "lat": 7.820534, "address": "ราไวย์ เมืองภูเก็ต ภูเก็ต", "accplace": "หน้า Super Chaep ราไวย์", "accdate": "01\/01\/2020" }, "geometry": { "type": "Point", "coordinates": [ 98.34052, 7.820534 ] } },
{ "type": "Feature", "properties": { "field_1": 8, "type": "N", "inj": 1, "dead": 0, "lng": 98.405763, "lat": 8.05715, "address": "ป่าคลอก ถลาง ภูเก็ต", "accplace": "หน้าโรงแรมป่าคลอก", "accdate": "01\/01\/2020" }, "geometry": { "type": "Point", "coordinates": [ 98.405763, 8.05715 ] } },
{ "type": "Feature", "properties": { "field_1": 9, "type": "N", "inj": 1, "dead": 0, "lng": 98.297839, "lat": 7.900558, "address": "ป่าตอง กะทู้ ภูเก็ต", "accplace": "หน้าวัดแหลมเพชร", "accdate": "01\/01\/2020" }, "geometry": { "type": "Point", "coordinates": [ 98.297839, 7.900558 ] } },
{ "type": "Feature", "properties": { "field_1": 10, "type": "N", "inj": 1, "dead": 0, "lng": 98.388709, "lat": 7.878602, "address": "ตลาดเหนือ เมืองภูเก็ต ภูเก็ต", "accplace": "หน้ามูลนิธิกุศลธรรม", "accdate": "01\/01\/2020" }, "geometry": { "type": "Point", "coordinates": [ 98.388709, 7.878602 ] } },
{ "type": "Feature", "properties": { "field_1": 11, "type": "N", "inj": 1, "dead": 0, "lng": 98.309297, "lat": 8.109884, "address": "สาคู ถลาง ภูเก็ต", "accplace": "ทางเรียบรันเวย์สนามบิน", "accdate": "01\/01\/2020" }, "geometry": { "type": "Point", "coordinates": [ 98.309297, 8.109884 ] } },
{ "type": "Feature", "properties": { "field_1": 12, "type": "N", "inj": 1, "dead": 0, "lng": 98.400252, "lat": 8.014001, "address": "ป่าคลอก ถลาง ภูเก็ต", "accplace": "หน้าวัดป่าคลอก", "accdate": "01\/01\/2020" }, "geometry": { "type": "Point", "coordinates": [ 98.400252, 8.014001 ] } },
{ "type": "Feature", "properties": { "field_1": 13, "type": "N", "inj": 1, "dead": 0, "lng": 98.333807, "lat": 7.910732, "address": "กะทู้ กะทู้ ภูเก็ต", "accplace": "บริเวณกะทู้", "accdate": "01\/01\/2020" }, "geometry": { "type": "Point", "coordinates": [ 98.333807, 7.910732 ] } },
{ "type": "Feature", "properties": { "field_1": 14, "type": "N", "inj": 2, "dead": 0, "lng": 98.393924, "lat": 7.888555, "address": "ตลาดใหญ่ เมืองภูเก็ต ภูเก็ต", "accplace": "สี่แยก ตม.", "accdate": "01\/01\/2020" }, "geometry": { "type": "Point", "coordinates": [ 98.393924, 7.888555 ] } },
{ "type": "Feature", "properties": { "field_1": 15, "type": "N", "inj": 1, "dead": 0, "lng": 98.382335, "lat": 7.935705, "address": "รัษฎา เมืองภูเก็ต ภูเก็ต", "accplace": "หน้าหมู่บ้านร็อคการ์เด้น", "accdate": "01\/01\/2020" }, "geometry": { "type": "Point", "coordinates": [ 98.382335, 7.935705 ] } },
{ "type": "Feature", "properties": { "field_1": 16, "type": "N", "inj": 1, "dead": 0, "lng": 98.333798, "lat": 7.910739, "address": "กะทู้ กะทู้ ภูเก็ต", "accplace": "กะทู้", "accdate": "01\/01\/2020" }, "geometry": { "type": "Point", "coordinates": [ 98.333798, 7.910739 ] } },
{ "type": "Feature", "properties": { "field_1": 17, "type": "N", "inj": 1, "dead": 0, "lng": 98.403783, "lat": 7.887614, "address": "ตลาดใหญ่ เมืองภูเก็ต ภูเก็ต", "accplace": "หน้าที่ว่าการอำเภอเมือง", "accdate": "01\/01\/2020" }, "geometry": { "type": "Point", "coordinates": [ 98.403783, 7.887614 ] } },
{ "type": "Feature", "properties": { "field_1": 18, "type": "N", "inj": 1, "dead": 0, "lng": 98.32768, "lat": 8.044788, "address": "เทพกระษัตรี ถลาง ภูเก็ต", "accplace": "ก่อนถึงทางเช้าพรุสมภาร", "accdate": "01\/01\/2020" }, "geometry": { "type": "Point", "coordinates": [ 98.32768, 8.044788 ] } },
{ "type": "Feature", "properties": { "field_1": 19, "type": "N", "inj": 1, "dead": 0, "lng": 98.302109, "lat": 7.896591, "address": "ป่าตอง กะทู้ ภูเก็ต", "accplace": "ป่าตอง", "accdate": "01\/01\/2020" }, "geometry": { "type": "Point", "coordinates": [ 98.302109, 7.896591 ] } },
{ "type": "Feature", "properties": { "field_1": 20, "type": "N", "inj": 1, "dead": 0, "lng": 98.367964, "lat": 7.974086, "address": "ศรีสุนทร ถลาง ภูเก็ต", "accplace": "วัดท่าเรือ", "accdate": "01\/01\/2020" }, "geometry": { "type": "Point", "coordinates": [ 98.367964, 7.974086 ] } },
{ "type": "Feature", "properties": { "field_1": 21, "type": "N", "inj": 1, "dead": 0, "lng": 98.331209, "lat": 7.886258, "address": "กะทู้ กะทู้ ภูเก็ต", "accplace": "ทางเข้าเขื่อนบางวาด", "accdate": "01\/01\/2020" }, "geometry": { "type": "Point", "coordinates": [ 98.331209, 7.886258 ] } },
{ "type": "Feature", "properties": { "field_1": 22, "type": "Y", "inj": 1, "dead": 1, "lng": 98.314971, "lat": 7.903453, "address": "ป่าตอง กะทู้ ภูเก็ต", "accplace": "ถนนพระบารมี", "accdate": "01\/01\/2020" }, "geometry": { "type": "Point", "coordinates": [ 98.314971, 7.903453 ] } },
{ "type": "Feature", "properties": { "field_1": 23, "type": "N", "inj": 1, "dead": 0, "lng": 98.321486, "lat": 7.771943, "address": "ราไวย์ เมืองภูเก็ต ภูเก็ต", "accplace": "ซอยมัสยิด ราไวย์", "accdate": "01\/01\/2020" }, "geometry": { "type": "Point", "coordinates": [ 98.321486, 7.771943 ] } },
{ "type": "Feature", "properties": { "field_1": 24, "type": "N", "inj": 1, "dead": 0, "lng": 98.328889, "lat": 7.782862, "address": "ราไวย์ เมืองภูเก็ต ภูเก็ต", "accplace": "พิพธภัณฑ์หอย", "accdate": "01\/01\/2020" }, "geometry": { "type": "Point", "coordinates": [ 98.328889, 7.782862 ] } },
{ "type": "Feature", "properties": { "field_1": 25, "type": "N", "inj": 1, "dead": 0, "lng": 98.301077, "lat": 8.078711, "address": "สาคู ถลาง ภูเก็ต", "accplace": "สนามบิน", "accdate": "01\/01\/2020" }, "geometry": { "type": "Point", "coordinates": [ 98.301077, 8.078711 ] } },
{ "type": "Feature", "properties": { "field_1": 26, "type": "N", "inj": 2, "dead": 0, "lng": 98.373361, "lat": 7.86135, "address": "วิชิต เมืองภูเก็ต ภูเก็ต", "accplace": "อนามัยแหลมชั่น", "accdate": "01\/01\/2020" }, "geometry": { "type": "Point", "coordinates": [ 98.373361, 7.86135 ] } },
{ "type": "Feature", "properties": { "field_1": 27, "type": "N", "inj": 1, "dead": 0, "lng": 98.382326, "lat": 7.84734, "address": "วิชิต เมืองภูเก็ต ภูเก็ต", "accplace": "หน้าป้อมตำรวจเมืองทอง", "accdate": "01\/01\/2020" }, "geometry": { "type": "Point", "coordinates": [ 98.382326, 7.84734 ] } },
{ "type": "Feature", "properties": { "field_1": 28, "type": "N", "inj": 2, "dead": 0, "lng": 98.351256, "lat": 7.867257, "address": "วิชิต เมืองภูเก็ต ภูเก็ต", "accplace": "หน้าวังถลาง", "accdate": "01\/01\/2020" }, "geometry": { "type": "Point", "coordinates": [ 98.351256, 7.867257 ] } },
{ "type": "Feature", "properties": { "field_1": 29, "type": "N", "inj": 1, "dead": 0, "lng": 98.360332, "lat": 7.863011, "address": "วิชิต เมืองภูเก็ต ภูเก็ต", "accplace": "ซอยเทพอนุสรณ์", "accdate": "01\/01\/2020" }, "geometry": { "type": "Point", "coordinates": [ 98.360332, 7.863011 ] } },
{ "type": "Feature", "properties": { "field_1": 30, "type": "N", "inj": 1, "dead": 0, "lng": 98.327677, "lat": 8.044785, "address": "ป่าตอง กะทู้ ภูเก็ต", "accplace": "ถนนไตรตรัง ป่าตอง", "accdate": "01\/01\/2020" }, "geometry": { "type": "Point", "coordinates": [ 98.327677, 8.044785 ] } },
{ "type": "Feature", "properties": { "field_1": 31, "type": "N", "inj": 1, "dead": 0, "lng": 98.333128, "lat": 7.9123, "address": "กะทู้ กะทู้ ภูเก็ต", "accplace": "สี่แยกสี่กอ", "accdate": "01\/01\/2020" }, "geometry": { "type": "Point", "coordinates": [ 98.333128, 7.9123 ] } },
{ "type": "Feature", "properties": { "field_1": 32, "type": "N", "inj": 4, "dead": 0, "lng": 98.371655, "lat": 7.866098, "address": "วิชิต เมืองภูเก็ต ภูเก็ต", "accplace": "หน้าอนามัยแหลมชั่น", "accdate": "01\/01\/2020" }, "geometry": { "type": "Point", "coordinates": [ 98.371655, 7.866098 ] } },
{ "type": "Feature", "properties": { "field_1": 33, "type": "N", "inj": 1, "dead": 0, "lng": 98.36432, "lat": 7.980737, "address": "ศรีสุนทร ถลาง ภูเก็ต", "accplace": "วัดท่าเรือ", "accdate": "01\/01\/2020" }, "geometry": { "type": "Point", "coordinates": [ 98.36432, 7.980737 ] } },
{ "type": "Feature", "properties": { "field_1": 34, "type": "N", "inj": 1, "dead": 0, "lng": 98.328887, "lat": 7.782869, "address": "ราไวย์ เมืองภูเก็ต ภูเก็ต", "accplace": "พิพิธภัณฑ์หอย", "accdate": "01\/01\/2020" }, "geometry": { "type": "Point", "coordinates": [ 98.328887, 7.782869 ] } },
{ "type": "Feature", "properties": { "field_1": 35, "type": "N", "inj": 1, "dead": 0, "lng": 98.30258, "lat": 8.011202, "address": "เชิงทะเล ถลาง ภูเก็ต", "accplace": "โคกโตนด ซ.3", "accdate": "01\/01\/2020" }, "geometry": { "type": "Point", "coordinates": [ 98.30258, 8.011202 ] } },
{ "type": "Feature", "properties": { "field_1": 36, "type": "N", "inj": 1, "dead": 0, "lng": 98.377972, "lat": 7.925447, "address": "รัษฎา เมืองภูเก็ต ภูเก็ต", "accplace": "แถวโบ๊ทพลาซ่า", "accdate": "01\/01\/2020" }, "geometry": { "type": "Point", "coordinates": [ 98.377972, 7.925447 ] } },
{ "type": "Feature", "properties": { "field_1": 37, "type": "N", "inj": 1, "dead": 0, "lng": 98.345146, "lat": 7.916348, "address": "กะทู้ กะทู้ ภูเก็ต", "accplace": "ศาลเจ้ากะทู้", "accdate": "01\/01\/2020" }, "geometry": { "type": "Point", "coordinates": [ 98.345146, 7.916348 ] } },
{ "type": "Feature", "properties": { "field_1": 38, "type": "N", "inj": 2, "dead": 0, "lng": 98.331233, "lat": 7.886324, "address": "กะทู้ กะทู้ ภูเก็ต", "accplace": "ซอยเขื่อนบางวาด", "accdate": "01\/01\/2020" }, "geometry": { "type": "Point", "coordinates": [ 98.331233, 7.886324 ] } },
{ "type": "Feature", "properties": { "field_1": 39, "type": "N", "inj": 1, "dead": 0, "lng": 98.369529, "lat": 7.859559, "address": "วิชิต เมืองภูเก็ต ภูเก็ต", "accplace": "หน้าวัดเทพนิมิตร", "accdate": "01\/01\/2020" }, "geometry": { "type": "Point", "coordinates": [ 98.369529, 7.859559 ] } },
{ "type": "Feature", "properties": { "field_1": 40, "type": "N", "inj": 2, "dead": 0, "lng": 98.280597, "lat": 7.969575, "address": "กมลา กะทู้ ภูเก็ต", "accplace": "หน้าจุดชมวิวแหลมสิงห์", "accdate": "01\/02\/2020" }, "geometry": { "type": "Point", "coordinates": [ 98.280597, 7.969575 ] } },
{ "type": "Feature", "properties": { "field_1": 41, "type": "N", "inj": 1, "dead": 0, "lng": 98.336713, "lat": 7.806019, "address": "ราไวย์ เมืองภูเก็ต ภูเก็ต", "accplace": "หน้าโรงเเรมราไวย์ ปริ้นเซล", "accdate": "01\/02\/2020" }, "geometry": { "type": "Point", "coordinates": [ 98.336713, 7.806019 ] } },
{ "type": "Feature", "properties": { "field_1": 42, "type": "N", "inj": 1, "dead": 0, "lng": 98.383969, "lat": 7.896904, "address": "ตลาดใหญ่ เมืองภูเก็ต ภูเก็ต", "accplace": "ข้าง รพ.วชิระ ทางไปสามกอง", "accdate": "01\/02\/2020" }, "geometry": { "type": "Point", "coordinates": [ 98.383969, 7.896904 ] } },
{ "type": "Feature", "properties": { "field_1": 43, "type": "N", "inj": 1, "dead": 0, "lng": 98.301494, "lat": 7.825057, "address": "กะรน เมืองภูเก็ต ภูเก็ต", "accplace": "ตลาดแม่สมจิตกะตะ", "accdate": "01\/02\/2020" }, "geometry": { "type": "Point", "coordinates": [ 98.301494, 7.825057 ] } },
{ "type": "Feature", "properties": { "field_1": 44, "type": "N", "inj": 1, "dead": 0, "lng": 98.336271, "lat": 7.90674, "address": "กะทู้ กะทู้ ภูเก็ต", "accplace": "หน้าโรงเรียนไทยรัฐ", "accdate": "01\/02\/2020" }, "geometry": { "type": "Point", "coordinates": [ 98.336271, 7.90674 ] } },
{ "type": "Feature", "properties": { "field_1": 45, "type": "N", "inj": 1, "dead": 0, "lng": 98.306374, "lat": 7.776463, "address": "ราไวย์ เมืองภูเก็ต ภูเก็ต", "accplace": "หาดในหาน", "accdate": "01\/02\/2020" }, "geometry": { "type": "Point", "coordinates": [ 98.306374, 7.776463 ] } },
{ "type": "Feature", "properties": { "field_1": 46, "type": "N", "inj": 1, "dead": 0, "lng": 98.335352, "lat": 7.908413, "address": "กะทู้ กะทู้ ภูเก็ต", "accplace": "หน้ารร.กะทู้", "accdate": "01\/02\/2020" }, "geometry": { "type": "Point", "coordinates": [ 98.335352, 7.908413 ] } },
{ "type": "Feature", "properties": { "field_1": 47, "type": "N", "inj": 1, "dead": 0, "lng": 98.283785, "lat": 7.976795, "address": "เชิงทะเล ถลาง ภูเก็ต", "accplace": "เซเว่นหาดสุรินทร์", "accdate": "01\/02\/2020" }, "geometry": { "type": "Point", "coordinates": [ 98.283785, 7.976795 ] } },
{ "type": "Feature", "properties": { "field_1": 48, "type": "N", "inj": 1, "dead": 0, "lng": 98.367131, "lat": 7.860537, "address": "ราไวย์ เมืองภูเก็ต ภูเก็ต", "accplace": "หน้าปั้มเชลล์ ถนนปฎัก", "accdate": "01\/02\/2020" }, "geometry": { "type": "Point", "coordinates": [ 98.367131, 7.860537 ] } },
{ "type": "Feature", "properties": { "field_1": 49, "type": "N", "inj": 1, "dead": 0, "lng": 98.332373, "lat": 7.911743, "address": "กะทู้ กะทู้ ภูเก็ต", "accplace": "บริเวณหน้าโรงเรียนเก็ตโฮ่", "accdate": "01\/02\/2020" }, "geometry": { "type": "Point", "coordinates": [ 98.332373, 7.911743 ] } },
{ "type": "Feature", "properties": { "field_1": 50, "type": "N", "inj": 1, "dead": 0, "lng": 98.294211, "lat": 7.843883, "address": "กะรน เมืองภูเก็ต ภูเก็ต", "accplace": "หน้าหาดกะรน", "accdate": "01\/02\/2020" }, "geometry": { "type": "Point", "coordinates": [ 98.294211, 7.843883 ] } },
{ "type": "Feature", "properties": { "field_1": 51, "type": "N", "inj": 2, "dead": 0, "lng": 98.38148, "lat": 7.86628, "address": "ศรีสุนทร ถลาง ภูเก็ต", "accplace": "หน้าบ้านหยีเต้ง", "accdate": "01\/02\/2020" }, "geometry": { "type": "Point", "coordinates": [ 98.38148, 7.86628 ] } },
{ "type": "Feature", "properties": { "field_1": 52, "type": "N", "inj": 1, "dead": 0, "lng": 98.390837, "lat": 7.879207, "address": "ตลาดใหญ่ เมืองภูเก็ต ภูเก็ต", "accplace": "มัสยิดตะลิ่งชั่น", "accdate": "01\/02\/2020" }, "geometry": { "type": "Point", "coordinates": [ 98.390837, 7.879207 ] } },
{ "type": "Feature", "properties": { "field_1": 53, "type": "N", "inj": 1, "dead": 0, "lng": 98.406395, "lat": 8.058641, "address": "ป่าคลอก ถลาง ภูเก็ต", "accplace": "ป่าคลอก", "accdate": "01\/02\/2020" }, "geometry": { "type": "Point", "coordinates": [ 98.406395, 8.058641 ] } },
{ "type": "Feature", "properties": { "field_1": 54, "type": "N", "inj": 2, "dead": 0, "lng": 98.381486, "lat": 7.866281, "address": "ศรีสุนทร ถลาง ภูเก็ต", "accplace": "หน้าบ้านหยี่เต้ง", "accdate": "01\/02\/2020" }, "geometry": { "type": "Point", "coordinates": [ 98.381486, 7.866281 ] } },
{ "type": "Feature", "properties": { "field_1": 55, "type": "N", "inj": 1, "dead": 0, "lng": 98.323666, "lat": 7.773231, "address": "ราไวย์ เมืองภูเก็ต ภูเก็ต", "accplace": "หน้าหาดราไวย์", "accdate": "01\/02\/2020" }, "geometry": { "type": "Point", "coordinates": [ 98.323666, 7.773231 ] } },
{ "type": "Feature", "properties": { "field_1": 56, "type": "N", "inj": 1, "dead": 0, "lng": 98.38811, "lat": 7.930664, "address": "รัษฎา เมืองภูเก็ต ภูเก็ต", "accplace": "แยกไฟแดงควนดินแดง", "accdate": "01\/02\/2020" }, "geometry": { "type": "Point", "coordinates": [ 98.38811, 7.930664 ] } },
{ "type": "Feature", "properties": { "field_1": 57, "type": "N", "inj": 1, "dead": 0, "lng": 98.388857, "lat": 7.954265, "address": "เกาะแก้ว เมืองภูเก็ต ภูเก็ต", "accplace": "ทางลงอุโมงเกาะแก้ว", "accdate": "01\/02\/2020" }, "geometry": { "type": "Point", "coordinates": [ 98.388857, 7.954265 ] } },
{ "type": "Feature", "properties": { "field_1": 58, "type": "N", "inj": 1, "dead": 0, "lng": 98.297104127704998, "lat": 7.9026631849440996, "address": "ป่าตอง กะทู้ ภูเก็ต", "accplace": "ป่าตอง", "accdate": "01\/02\/2020" }, "geometry": { "type": "Point", "coordinates": [ 98.297104127704998, 7.9026631849441 ] } },
{ "type": "Feature", "properties": { "field_1": 59, "type": "N", "inj": 1, "dead": 0, "lng": 98.368787, "lat": 7.903097, "address": "รัษฎา เมืองภูเก็ต ภูเก็ต", "accplace": "แถวโลตัสสามกอง", "accdate": "01\/02\/2020" }, "geometry": { "type": "Point", "coordinates": [ 98.368787, 7.903097 ] } },
{ "type": "Feature", "properties": { "field_1": 60, "type": "N", "inj": 1, "dead": 0, "lng": 98.374248, "lat": 7.906869, "address": "สามกอง เมืองภูเก็ต ภูเก็ต", "accplace": "ซอยพะเนียง", "accdate": "01\/02\/2020" }, "geometry": { "type": "Point", "coordinates": [ 98.374248, 7.906869 ] } },
{ "type": "Feature", "properties": { "field_1": 61, "type": "N", "inj": 1, "dead": 0, "lng": 98.348388, "lat": 7.836705, "address": "ฉลอง เมืองภูเก็ต ภูเก็ต", "accplace": "บริเวณฉลอง", "accdate": "01\/02\/2020" }, "geometry": { "type": "Point", "coordinates": [ 98.348388, 7.836705 ] } },
{ "type": "Feature", "properties": { "field_1": 62, "type": "N", "inj": 1, "dead": 0, "lng": 98.332068, "lat": 7.982912, "address": "ศรีสุนทร ถลาง ภูเก็ต", "accplace": "เกิดเหตุบางโจ", "accdate": "01\/02\/2020" }, "geometry": { "type": "Point", "coordinates": [ 98.332068, 7.982912 ] } },
{ "type": "Feature", "properties": { "field_1": 63, "type": "N", "inj": 1, "dead": 0, "lng": 98.388858, "lat": 7.95428, "address": "เกาะแก้ว เมืองภูเก็ต ภูเก็ต", "accplace": "แถวเกาะแก้ว", "accdate": "01\/02\/2020" }, "geometry": { "type": "Point", "coordinates": [ 98.388858, 7.95428 ] } },
{ "type": "Feature", "properties": { "field_1": 64, "type": "N", "inj": 1, "dead": 0, "lng": 98.344932, "lat": 7.840278, "address": "ฉลอง เมืองภูเก็ต ภูเก็ต", "accplace": "ฉลอง", "accdate": "01\/02\/2020" }, "geometry": { "type": "Point", "coordinates": [ 98.344932, 7.840278 ] } },
{ "type": "Feature", "properties": { "field_1": 65, "type": "N", "inj": 1, "dead": 0, "lng": 98.334904, "lat": 7.799087, "address": "ราไวย์ เมืองภูเก็ต ภูเก็ต", "accplace": "ถนนวิเศษ", "accdate": "01\/03\/2020" }, "geometry": { "type": "Point", "coordinates": [ 98.334904, 7.799087 ] } },
{ "type": "Feature", "properties": { "field_1": 66, "type": "N", "inj": 1, "dead": 0, "lng": 98.398533, "lat": 7.87804, "address": "ตลาดใหญ่ เมืองภูเก็ต ภูเก็ต", "accplace": "โกรเซอรี่", "accdate": "01\/03\/2020" }, "geometry": { "type": "Point", "coordinates": [ 98.398533, 7.87804 ] } },
{ "type": "Feature", "properties": { "field_1": 67, "type": "N", "inj": 1, "dead": 0, "lng": 98.29933, "lat": 7.89214, "address": "ป่าตอง กะทู้ ภูเก็ต", "accplace": "หลังจังซีลอน", "accdate": "01\/03\/2020" }, "geometry": { "type": "Point", "coordinates": [ 98.29933, 7.89214 ] } },
{ "type": "Feature", "properties": { "field_1": 68, "type": "N", "inj": 1, "dead": 0, "lng": 98.304886, "lat": 7.881005, "address": "ป่าตอง กะทู้ ภูเก็ต", "accplace": "ทางลงเขา 50 ปี", "accdate": "01\/03\/2020" }, "geometry": { "type": "Point", "coordinates": [ 98.304886, 7.881005 ] } },
{ "type": "Feature", "properties": { "field_1": 69, "type": "N", "inj": 1, "dead": 0, "lng": 98.360462, "lat": 7.871456, "address": "วิชิต เมืองภูเก็ต ภูเก็ต", "accplace": "หน้ารพ.ดีบุก", "accdate": "01\/03\/2020" }, "geometry": { "type": "Point", "coordinates": [ 98.360462, 7.871456 ] } },
{ "type": "Feature", "properties": { "field_1": 70, "type": "N", "inj": 1, "dead": 0, "lng": 98.341687, "lat": 7.899955, "address": "กะทู้ กะทู้ ภูเก็ต", "accplace": "ถนนวิชิตสงคราม", "accdate": "01\/03\/2020" }, "geometry": { "type": "Point", "coordinates": [ 98.341687, 7.899955 ] } },
{ "type": "Feature", "properties": { "field_1": 71, "type": "N", "inj": 2, "dead": 0, "lng": 98.351665, "lat": 7.904277, "address": "กะทู้ กะทู้ ภูเก็ต", "accplace": "ก่อนถึงสวนสาธารณะกะทู้", "accdate": "01\/03\/2020" }, "geometry": { "type": "Point", "coordinates": [ 98.351665, 7.904277 ] } },
{ "type": "Feature", "properties": { "field_1": 72, "type": "N", "inj": 1, "dead": 0, "lng": 98.388859, "lat": 7.954263, "address": "เกาะแก้ว เมืองภูเก็ต ภูเก็ต", "accplace": "เกาะแก้ว", "accdate": "01\/03\/2020" }, "geometry": { "type": "Point", "coordinates": [ 98.388859, 7.954263 ] } },
{ "type": "Feature", "properties": { "field_1": 73, "type": "N", "inj": 1, "dead": 0, "lng": 98.299354, "lat": 7.892116, "address": "ป่าตอง กะทู้ ภูเก็ต", "accplace": "จังซิลอน", "accdate": "01\/03\/2020" }, "geometry": { "type": "Point", "coordinates": [ 98.299354, 7.892116 ] } },
{ "type": "Feature", "properties": { "field_1": 74, "type": "N", "inj": 2, "dead": 0, "lng": 98.333804, "lat": 7.910731, "address": "กะทู้ กะทู้ ภูเก็ต", "accplace": "ทางขึ้นเขาป่าตอง", "accdate": "01\/03\/2020" }, "geometry": { "type": "Point", "coordinates": [ 98.333804, 7.910731 ] } },
{ "type": "Feature", "properties": { "field_1": 75, "type": "N", "inj": 1, "dead": 0, "lng": 98.299326, "lat": 7.821061, "address": "กะรน เมืองภูเก็ต ภูเก็ต", "accplace": "สามแยกโตนด กะตะ", "accdate": "01\/03\/2020" }, "geometry": { "type": "Point", "coordinates": [ 98.299326, 7.821061 ] } },
{ "type": "Feature", "properties": { "field_1": 76, "type": "N", "inj": 1, "dead": 0, "lng": 98.407139, "lat": 7.892474, "address": "ตลาดใหญ่ เมืองภูเก็ต ภูเก็ต", "accplace": "ถนนตรัง", "accdate": "01\/03\/2020" }, "geometry": { "type": "Point", "coordinates": [ 98.407139, 7.892474 ] } },
{ "type": "Feature", "properties": { "field_1": 77, "type": "N", "inj": 1, "dead": 0, "lng": 98.368532, "lat": 7.891334, "address": "วิชิต เมืองภูเก็ต ภูเก็ต", "accplace": "แถวสี่แยกเซนทรัล", "accdate": "01\/03\/2020" }, "geometry": { "type": "Point", "coordinates": [ 98.368532, 7.891334 ] } },
{ "type": "Feature", "properties": { "field_1": 78, "type": "N", "inj": 1, "dead": 0, "lng": 98.374531, "lat": 7.911476, "address": "รัษฎา เมืองภูเก็ต ภูเก็ต", "accplace": "ซอยพะเนียง", "accdate": "01\/03\/2020" }, "geometry": { "type": "Point", "coordinates": [ 98.374531, 7.911476 ] } },
{ "type": "Feature", "properties": { "field_1": 79, "type": "N", "inj": 1, "dead": 0, "lng": 98.293857, "lat": 7.891336, "address": "ป่าตอง กะทู้ ภูเก็ต", "accplace": "ถนนทวีวงศ์", "accdate": "01\/03\/2020" }, "geometry": { "type": "Point", "coordinates": [ 98.293857, 7.891336 ] } },
{ "type": "Feature", "properties": { "field_1": 80, "type": "N", "inj": 1, "dead": 0, "lng": 98.390794, "lat": 7.906636, "address": "รัษฎา เมืองภูเก็ต ภูเก็ต", "accplace": "ยูเทิร์นร้านหนึ่งยานยนต์", "accdate": "01\/03\/2020" }, "geometry": { "type": "Point", "coordinates": [ 98.390794, 7.906636 ] } },
{ "type": "Feature", "properties": { "field_1": 81, "type": "N", "inj": 1, "dead": 0, "lng": 98.392103, "lat": 7.869854, "address": "ตลาดเหนือ เมืองภูเก็ต ภูเก็ต", "accplace": "แยกอาชีวะ", "accdate": "01\/03\/2020" }, "geometry": { "type": "Point", "coordinates": [ 98.392103, 7.869854 ] } },
{ "type": "Feature", "properties": { "field_1": 82, "type": "N", "inj": 1, "dead": 0, "lng": 98.344936, "lat": 7.840284, "address": "ฉลอง เมืองภูเก็ต ภูเก็ต", "accplace": "วงเวียนฉลอง", "accdate": "01\/03\/2020" }, "geometry": { "type": "Point", "coordinates": [ 98.344936, 7.840284 ] } },
{ "type": "Feature", "properties": { "field_1": 83, "type": "N", "inj": 2, "dead": 0, "lng": 98.366798, "lat": 7.891111, "address": "วิชิต เมืองภูเก็ต ภูเก็ต", "accplace": "บริเวณสี่แยกเซ็นทรัล", "accdate": "01\/03\/2020" }, "geometry": { "type": "Point", "coordinates": [ 98.366798, 7.891111 ] } },
{ "type": "Feature", "properties": { "field_1": 84, "type": "N", "inj": 1, "dead": 0, "lng": 98.344282, "lat": 8.004636, "address": "ศรีสุนทร ถลาง ภูเก็ต", "accplace": "หน้ามินิมาร์ทบ้านพอน", "accdate": "01\/03\/2020" }, "geometry": { "type": "Point", "coordinates": [ 98.344282, 8.004636 ] } },
{ "type": "Feature", "properties": { "field_1": 85, "type": "N", "inj": 1, "dead": 0, "lng": 98.39408, "lat": 7.877672, "address": "ตลาดใหญ่ เมืองภูเก็ต ภูเก็ต", "accplace": "แถวโรบินสัน", "accdate": "01\/03\/2020" }, "geometry": { "type": "Point", "coordinates": [ 98.39408, 7.877672 ] } },
{ "type": "Feature", "properties": { "field_1": 86, "type": "N", "inj": 1, "dead": 0, "lng": 98.340363, "lat": 7.828361, "address": "ฉลอง เมืองภูเก็ต ภูเก็ต", "accplace": "หน้าชุปเปอร์ชีฟป่าหล่าย", "accdate": "01\/03\/2020" }, "geometry": { "type": "Point", "coordinates": [ 98.340363, 7.828361 ] } },
{ "type": "Feature", "properties": { "field_1": 87, "type": "N", "inj": 1, "dead": 0, "lng": 98.328571, "lat": 7.800307, "address": "ราไวย์ เมืองภูเก็ต ภูเก็ต", "accplace": "แถวใสยวน", "accdate": "01\/03\/2020" }, "geometry": { "type": "Point", "coordinates": [ 98.328571, 7.800307 ] } },
{ "type": "Feature", "properties": { "field_1": 88, "type": "N", "inj": 1, "dead": 0, "lng": 98.37955, "lat": 7.863456, "address": "ตลาดเหนือ เมืองภูเก็ต ภูเก็ต", "accplace": "ถนนศักดิเดช", "accdate": "01\/03\/2020" }, "geometry": { "type": "Point", "coordinates": [ 98.37955, 7.863456 ] } },
{ "type": "Feature", "properties": { "field_1": 89, "type": "N", "inj": 1, "dead": 0, "lng": 98.385664, "lat": 7.894914, "address": "รัษฎา เมืองภูเก็ต ภูเก็ต", "accplace": "สามแยกวิทยาลัยเทคนิคภูเก็ต", "accdate": "01\/03\/2020" }, "geometry": { "type": "Point", "coordinates": [ 98.385664, 7.894914 ] } },
{ "type": "Feature", "properties": { "field_1": 90, "type": "N", "inj": 1, "dead": 0, "lng": 98.327803, "lat": 7.925574, "address": "กะทู้ กะทู้ ภูเก็ต", "accplace": "ซอยน้ำตกกระทู้", "accdate": "01\/03\/2020" }, "geometry": { "type": "Point", "coordinates": [ 98.327803, 7.925574 ] } },
{ "type": "Feature", "properties": { "field_1": 91, "type": "N", "inj": 1, "dead": 0, "lng": 98.30248, "lat": 8.011686, "address": "เชิงทะเล ถลาง ภูเก็ต", "accplace": "เชิงทะเล", "accdate": "01\/03\/2020" }, "geometry": { "type": "Point", "coordinates": [ 98.30248, 8.011686 ] } },
{ "type": "Feature", "properties": { "field_1": 92, "type": "N", "inj": 2, "dead": 0, "lng": 98.39198, "lat": 7.947511, "address": "เกาะแก้ว เมืองภูเก็ต ภูเก็ต", "accplace": "หน้าสะปำวิลเลจ", "accdate": "01\/03\/2020" }, "geometry": { "type": "Point", "coordinates": [ 98.39198, 7.947511 ] } },
{ "type": "Feature", "properties": { "field_1": 93, "type": "N", "inj": 2, "dead": 0, "lng": 98.290239, "lat": 7.85784, "address": "กะรน เมืองภูเก็ต ภูเก็ต", "accplace": "เซ็นทารา", "accdate": "01\/03\/2020" }, "geometry": { "type": "Point", "coordinates": [ 98.290239, 7.85784 ] } },
{ "type": "Feature", "properties": { "field_1": 94, "type": "N", "inj": 1, "dead": 0, "lng": 98.36761, "lat": 7.896012, "address": "วิชิต เมืองภูเก็ต ภูเก็ต", "accplace": "หน้าบิ๊กซี", "accdate": "01\/03\/2020" }, "geometry": { "type": "Point", "coordinates": [ 98.36761, 7.896012 ] } },
{ "type": "Feature", "properties": { "field_1": 95, "type": "N", "inj": 1, "dead": 0, "lng": 98.383453, "lat": 7.88316, "address": "ตลาดเหนือ เมืองภูเก็ต ภูเก็ต", "accplace": "ศาลเจ้าจุ้ยตุ่ย", "accdate": "01\/03\/2020" }, "geometry": { "type": "Point", "coordinates": [ 98.383453, 7.88316 ] } },
{ "type": "Feature", "properties": { "field_1": 96, "type": "N", "inj": 1, "dead": 0, "lng": 98.333640173077995, "lat": 7.9106280034193004, "address": "กะทู้ กะทู้ ภูเก็ต", "accplace": "แถวซุปเปอร์ซิปกะทู้", "accdate": "01\/03\/2020" }, "geometry": { "type": "Point", "coordinates": [ 98.333640173077995, 7.9106280034193 ] } },
{ "type": "Feature", "properties": { "field_1": 97, "type": "N", "inj": 1, "dead": 0, "lng": 98.302098, "lat": 7.896592, "address": "ป่าตอง กะทู้ ภูเก็ต", "accplace": "ทางขึ้นเขาป่าตอง", "accdate": "01\/03\/2020" }, "geometry": { "type": "Point", "coordinates": [ 98.302098, 7.896592 ] } },
{ "type": "Feature", "properties": { "field_1": 98, "type": "N", "inj": 1, "dead": 0, "lng": 98.324497, "lat": 7.830927, "address": "ฉลอง เมืองภูเก็ต ภูเก็ต", "accplace": "ซอยยอดเสน่ห์", "accdate": "01\/03\/2020" }, "geometry": { "type": "Point", "coordinates": [ 98.324497, 7.830927 ] } },
{ "type": "Feature", "properties": { "field_1": 99, "type": "N", "inj": 1, "dead": 0, "lng": 98.415085, "lat": 7.902152, "address": "รัษฎา เมืองภูเก็ต ภูเก็ต", "accplace": "กิ่งแก้วซอย 1", "accdate": "01\/04\/2020" }, "geometry": { "type": "Point", "coordinates": [ 98.415085, 7.902152 ] } },
{ "type": "Feature", "properties": { "field_1": 100, "type": "N", "inj": 1, "dead": 0, "lng": 98.380348831415006, "lat": 7.8774964842216999, "address": "ตลาดเหนือ เมืองภูเก็ต ภูเก็ต", "accplace": "แยกโรงฆ่าสัตว์", "accdate": "01\/04\/2020" }, "geometry": { "type": "Point", "coordinates": [ 98.380348831415006, 7.8774964842217 ] } },
{ "type": "Feature", "properties": { "field_1": 101, "type": "N", "inj": 1, "dead": 0, "lng": 98.366814, "lat": 7.891083, "address": "วิชิต เมืองภูเก็ต ภูเก็ต", "accplace": "สี่แยกเซ็นทรัล", "accdate": "01\/04\/2020" }, "geometry": { "type": "Point", "coordinates": [ 98.366814, 7.891083 ] } },
{ "type": "Feature", "properties": { "field_1": 102, "type": "N", "inj": 1, "dead": 0, "lng": 98.322729, "lat": 8.016555, "address": "เทพกระษัตรี ถลาง ภูเก็ต", "accplace": "แถวบ้านดอน", "accdate": "01\/04\/2020" }, "geometry": { "type": "Point", "coordinates": [ 98.322729, 8.016555 ] } },
{ "type": "Feature", "properties": { "field_1": 103, "type": "N", "inj": 1, "dead": 0, "lng": 98.346428, "lat": 7.852936, "address": "ฉลอง เมืองภูเก็ต ภูเก็ต", "accplace": "ปากซอยตาเอียด", "accdate": "01\/04\/2020" }, "geometry": { "type": "Point", "coordinates": [ 98.346428, 7.852936 ] } },
{ "type": "Feature", "properties": { "field_1": 104, "type": "N", "inj": 1, "dead": 0, "lng": 98.364304, "lat": 7.984758, "address": "สาคู ถลาง ภูเก็ต", "accplace": "เกิดเหตุซอย นาสาด 1", "accdate": "01\/04\/2020" }, "geometry": { "type": "Point", "coordinates": [ 98.364304, 7.984758 ] } },
{ "type": "Feature", "properties": { "field_1": 105, "type": "N", "inj": 1, "dead": 0, "lng": 98.394978269934995, "lat": 7.9389137533351004, "address": "เกาะแก้ว เมืองภูเก็ต ภูเก็ต", "accplace": "หน้าชุปเปอร์ชีปสะปำ", "accdate": "01\/04\/2020" }, "geometry": { "type": "Point", "coordinates": [ 98.394978269934995, 7.9389137533351 ] } },
{ "type": "Feature", "properties": { "field_1": 106, "type": "N", "inj": 1, "dead": 0, "lng": 98.368033, "lat": 7.856307, "address": "วิชิต เมืองภูเก็ต ภูเก็ต", "accplace": "หน้าวิลล่า3", "accdate": "01\/04\/2020" }, "geometry": { "type": "Point", "coordinates": [ 98.368033, 7.856307 ] } },
{ "type": "Feature", "properties": { "field_1": 107, "type": "N", "inj": 1, "dead": 0, "lng": 98.361325, "lat": 7.873225, "address": "วิชิต เมืองภูเก็ต ภูเก็ต", "accplace": "บริเวณคิงพาวเวอร์", "accdate": "01\/04\/2020" }, "geometry": { "type": "Point", "coordinates": [ 98.361325, 7.873225 ] } },
{ "type": "Feature", "properties": { "field_1": 108, "type": "N", "inj": 2, "dead": 0, "lng": 98.299148, "lat": 7.981482, "address": "เชิงทะเล ถลาง ภูเก็ต", "accplace": "เหตุเกิดที่ตลาดนัดบางเทา", "accdate": "01\/04\/2020" }, "geometry": { "type": "Point", "coordinates": [ 98.299148, 7.981482 ] } },
{ "type": "Feature", "properties": { "field_1": 109, "type": "N", "inj": 1, "dead": 0, "lng": 98.368033, "lat": 7.856307, "address": "วิชิต เมืองภูเก็ต ภูเก็ต", "accplace": "หน้าหมู่บ้านวิลล่า 3 ทางไปสวนหลวง", "accdate": "01\/04\/2020" }, "geometry": { "type": "Point", "coordinates": [ 98.368033, 7.856307 ] } },
{ "type": "Feature", "properties": { "field_1": 110, "type": "N", "inj": 1, "dead": 0, "lng": 98.356903, "lat": 7.85839, "address": "วิชิต เมืองภูเก็ต ภูเก็ต", "accplace": "ถ.ขวางหน้าหมู่บ้านปรางทอง", "accdate": "01\/04\/2020" }, "geometry": { "type": "Point", "coordinates": [ 98.356903, 7.85839 ] } },
{ "type": "Feature", "properties": { "field_1": 111, "type": "N", "inj": 1, "dead": 0, "lng": 98.373295, "lat": 7.906938, "address": "ตลาดใหญ่ เมืองภูเก็ต ภูเก็ต", "accplace": "ตลาดสดลำดวน", "accdate": "01\/04\/2020" }, "geometry": { "type": "Point", "coordinates": [ 98.373295, 7.906938 ] } },
{ "type": "Feature", "properties": { "field_1": 112, "type": "N", "inj": 1, "dead": 0, "lng": 98.371631, "lat": 7.915531, "address": "สามกอง เมืองภูเก็ต ภูเก็ต", "accplace": "แถวสามแยกตลาดทวีสมาน", "accdate": "01\/04\/2020" }, "geometry": { "type": "Point", "coordinates": [ 98.371631, 7.915531 ] } },
{ "type": "Feature", "properties": { "field_1": 113, "type": "N", "inj": 1, "dead": 0, "lng": 98.367984, "lat": 7.903089, "address": "รัษฎา เมืองภูเก็ต ภูเก็ต", "accplace": "โลตัสสามกอง", "accdate": "01\/05\/2020" }, "geometry": { "type": "Point", "coordinates": [ 98.367984, 7.903089 ] } },
{ "type": "Feature", "properties": { "field_1": 114, "type": "N", "inj": 1, "dead": 0, "lng": 98.299836963415004, "lat": 7.8879034228578, "address": "ป่าตอง กะทู้ ภูเก็ต", "accplace": "หน้าบีควิก จังซีลอน", "accdate": "01\/05\/2020" }, "geometry": { "type": "Point", "coordinates": [ 98.299836963415004, 7.8879034228578 ] } },
{ "type": "Feature", "properties": { "field_1": 115, "type": "N", "inj": 1, "dead": 0, "lng": 98.391191, "lat": 7.883804, "address": "ตลาดใหญ่ เมืองภูเก็ต ภูเก็ต", "accplace": "หน้าธนาคารออมสิน", "accdate": "01\/05\/2020" }, "geometry": { "type": "Point", "coordinates": [ 98.391191, 7.883804 ] } },
{ "type": "Feature", "properties": { "field_1": 116, "type": "N", "inj": 1, "dead": 0, "lng": 98.39064, "lat": 7.891078, "address": "ตลาดใหญ่ เมืองภูเก็ต ภูเก็ต", "accplace": "หน้าโรงเรียนสตรีภูเก็ต", "accdate": "01\/05\/2020" }, "geometry": { "type": "Point", "coordinates": [ 98.39064, 7.891078 ] } },
{ "type": "Feature", "properties": { "field_1": 117, "type": "N", "inj": 1, "dead": 0, "lng": 98.375737, "lat": 7.843129, "address": "วิชิต เมืองภูเก็ต ภูเก็ต", "accplace": "คลองมุดง", "accdate": "01\/05\/2020" }, "geometry": { "type": "Point", "coordinates": [ 98.375737, 7.843129 ] } },
{ "type": "Feature", "properties": { "field_1": 118, "type": "N", "inj": 1, "dead": 0, "lng": 98.381265, "lat": 7.892551, "address": "ตลาดใหญ่ เมืองภูเก็ต ภูเก็ต", "accplace": "สี่แยกเขารัง", "accdate": "01\/05\/2020" }, "geometry": { "type": "Point", "coordinates": [ 98.381265, 7.892551 ] } },
{ "type": "Feature", "properties": { "field_1": 119, "type": "N", "inj": 1, "dead": 0, "lng": 98.398822, "lat": 7.890299, "address": "ตลาดใหญ่ เมืองภูเก็ต ภูเก็ต", "accplace": "หน้าศาลากลาง", "accdate": "01\/05\/2020" }, "geometry": { "type": "Point", "coordinates": [ 98.398822, 7.890299 ] } },
{ "type": "Feature", "properties": { "field_1": 120, "type": "N", "inj": 1, "dead": 0, "lng": 98.394833, "lat": 7.920801, "address": "รัษฎา เมืองภูเก็ต ภูเก็ต", "accplace": "แถวเลยหน้าซุปเปอร์ซิปใหญ่", "accdate": "01\/05\/2020" }, "geometry": { "type": "Point", "coordinates": [ 98.394833, 7.920801 ] } },
{ "type": "Feature", "properties": { "field_1": 121, "type": "N", "inj": 1, "dead": 0, "lng": 98.374451, "lat": 7.885661, "address": "ตลาดเหนือ เมืองภูเก็ต ภูเก็ต", "accplace": "วิชิตสงครามซอย4", "accdate": "01\/05\/2020" }, "geometry": { "type": "Point", "coordinates": [ 98.374451, 7.885661 ] } },
{ "type": "Feature", "properties": { "field_1": 122, "type": "N", "inj": 1, "dead": 0, "lng": 98.306997, "lat": 7.881951, "address": "กะทู้ กะทู้ ภูเก็ต", "accplace": "เขาป่าตอง", "accdate": "01\/05\/2020" }, "geometry": { "type": "Point", "coordinates": [ 98.306997, 7.881951 ] } },
{ "type": "Feature", "properties": { "field_1": 123, "type": "N", "inj": 1, "dead": 0, "lng": 98.288958, "lat": 7.949141, "address": "กะทู้ กะทู้ ภูเก็ต", "accplace": "ควนลิ้มซ่าน", "accdate": "01\/05\/2020" }, "geometry": { "type": "Point", "coordinates": [ 98.288958, 7.949141 ] } },
{ "type": "Feature", "properties": { "field_1": 124, "type": "N", "inj": 1, "dead": 0, "lng": 98.374531, "lat": 7.911476, "address": "รัษฎา เมืองภูเก็ต ภูเก็ต", "accplace": "ซอยพะเนียง", "accdate": "01\/05\/2020" }, "geometry": { "type": "Point", "coordinates": [ 98.374531, 7.911476 ] } },
{ "type": "Feature", "properties": { "field_1": 125, "type": "N", "inj": 1, "dead": 0, "lng": 98.394204, "lat": 7.889729, "address": "ตลาดใหญ่ เมืองภูเก็ต ภูเก็ต", "accplace": "หน้าสำนักงานที่ดิน", "accdate": "01\/05\/2020" }, "geometry": { "type": "Point", "coordinates": [ 98.394204, 7.889729 ] } },
{ "type": "Feature", "properties": { "field_1": 126, "type": "N", "inj": 1, "dead": 0, "lng": 98.367701, "lat": 7.905666, "address": "รัษฎา เมืองภูเก็ต ภูเก็ต", "accplace": "หน้าโลตัสทางไปเกาะสิเหร่", "accdate": "01\/05\/2020" }, "geometry": { "type": "Point", "coordinates": [ 98.367701, 7.905666 ] } },
{ "type": "Feature", "properties": { "field_1": 127, "type": "N", "inj": 1, "dead": 0, "lng": 98.376077, "lat": 7.903367, "address": "ตลาดใหญ่ เมืองภูเก็ต ภูเก็ต", "accplace": "หน้า รพ.กรุงเทพ", "accdate": "01\/06\/2020" }, "geometry": { "type": "Point", "coordinates": [ 98.376077, 7.903367 ] } },
{ "type": "Feature", "properties": { "field_1": 128, "type": "N", "inj": 3, "dead": 0, "lng": 98.376022, "lat": 7.903354, "address": "ตลาดใหญ่ เมืองภูเก็ต ภูเก็ต", "accplace": "หน้า รพ.กรุงเทพ", "accdate": "01\/06\/2020" }, "geometry": { "type": "Point", "coordinates": [ 98.376022, 7.903354 ] } },
{ "type": "Feature", "properties": { "field_1": 129, "type": "N", "inj": 1, "dead": 0, "lng": 98.284963, "lat": 7.949473, "address": "กมลา กะทู้ ภูเก็ต", "accplace": "ซอยสุขสรรค์", "accdate": "01\/06\/2020" }, "geometry": { "type": "Point", "coordinates": [ 98.284963, 7.949473 ] } },
{ "type": "Feature", "properties": { "field_1": 130, "type": "N", "inj": 1, "dead": 0, "lng": 98.285044, "lat": 7.949577, "address": "กมลา กะทู้ ภูเก็ต", "accplace": "กมลา", "accdate": "01\/06\/2020" }, "geometry": { "type": "Point", "coordinates": [ 98.285044, 7.949577 ] } },
{ "type": "Feature", "properties": { "field_1": 131, "type": "N", "inj": 1, "dead": 0, "lng": 98.342176, "lat": 7.823849, "address": "ฉลอง เมืองภูเก็ต ภูเก็ต", "accplace": "ห้าแยกฉลอง", "accdate": "01\/06\/2020" }, "geometry": { "type": "Point", "coordinates": [ 98.342176, 7.823849 ] } },
{ "type": "Feature", "properties": { "field_1": 132, "type": "N", "inj": 1, "dead": 0, "lng": 98.394952, "lat": 7.920747, "address": "รัษฎา เมืองภูเก็ต ภูเก็ต", "accplace": "ทางแยกหลังชุปเปอร์ชีปใหญ่ ลักกงษี", "accdate": "01\/06\/2020" }, "geometry": { "type": "Point", "coordinates": [ 98.394952, 7.920747 ] } },
{ "type": "Feature", "properties": { "field_1": 133, "type": "N", "inj": 1, "dead": 0, "lng": 98.306845910847002, "lat": 7.9032061550627999, "address": "ป่าตอง กะทู้ ภูเก็ต", "accplace": "ถนนพระบารมี", "accdate": "01\/06\/2020" }, "geometry": { "type": "Point", "coordinates": [ 98.306845910847002, 7.9032061550628 ] } },
{ "type": "Feature", "properties": { "field_1": 134, "type": "N", "inj": 1, "dead": 0, "lng": 98.336112, "lat": 7.992528, "address": "ศรีสุนทร ถลาง ภูเก็ต", "accplace": "บางโจ", "accdate": "01\/06\/2020" }, "geometry": { "type": "Point", "coordinates": [ 98.336112, 7.992528 ] } },
{ "type": "Feature", "properties": { "field_1": 135, "type": "N", "inj": 1, "dead": 0, "lng": 98.304902, "lat": 7.881008, "address": "ป่าตอง กะทู้ ภูเก็ต", "accplace": "เขา 50ปี", "accdate": "01\/06\/2020" }, "geometry": { "type": "Point", "coordinates": [ 98.304902, 7.881008 ] } },
{ "type": "Feature", "properties": { "field_1": 136, "type": "N", "inj": 2, "dead": 0, "lng": 98.353807, "lat": 7.900081, "address": "กะทู้ กะทู้ ภูเก็ต", "accplace": "แยกเก็ตโฮ", "accdate": "01\/06\/2020" }, "geometry": { "type": "Point", "coordinates": [ 98.353807, 7.900081 ] } },
{ "type": "Feature", "properties": { "field_1": 137, "type": "N", "inj": 1, "dead": 0, "lng": 98.299586, "lat": 7.88969, "address": "ป่าตอง กะทู้ ภูเก็ต", "accplace": "หน้าบิ๊กซีป่าตอง", "accdate": "01\/06\/2020" }, "geometry": { "type": "Point", "coordinates": [ 98.299586, 7.88969 ] } },
{ "type": "Feature", "properties": { "field_1": 138, "type": "N", "inj": 1, "dead": 0, "lng": 98.284842, "lat": 7.949933, "address": "กมลา กะทู้ ภูเก็ต", "accplace": "กมลา", "accdate": "01\/06\/2020" }, "geometry": { "type": "Point", "coordinates": [ 98.284842, 7.949933 ] } },
{ "type": "Feature", "properties": { "field_1": 139, "type": "N", "inj": 1, "dead": 0, "lng": 98.366956, "lat": 7.860621, "address": "วิชิต เมืองภูเก็ต ภูเก็ต", "accplace": "ปั๊มเซลล์วิชิต", "accdate": "01\/06\/2020" }, "geometry": { "type": "Point", "coordinates": [ 98.366956, 7.860621 ] } },
{ "type": "Feature", "properties": { "field_1": 140, "type": "N", "inj": 1, "dead": 0, "lng": 98.396441, "lat": 7.871512, "address": "ตลาดใหญ่ เมืองภูเก็ต ภูเก็ต", "accplace": "ซอยหมู่บ้านเดอะเออเบิน สะพานหิน", "accdate": "01\/06\/2020" }, "geometry": { "type": "Point", "coordinates": [ 98.396441, 7.871512 ] } },
{ "type": "Feature", "properties": { "field_1": 141, "type": "N", "inj": 1, "dead": 0, "lng": 98.37299, "lat": 7.888954, "address": "วิชิต เมืองภูเก็ต ภูเก็ต", "accplace": "หน้าสนามสุระกุล", "accdate": "01\/07\/2020" }, "geometry": { "type": "Point", "coordinates": [ 98.37299, 7.888954 ] } },
{ "type": "Feature", "properties": { "field_1": 142, "type": "N", "inj": 1, "dead": 0, "lng": 98.295294, "lat": 8.046069, "address": "สาคู ถลาง ภูเก็ต", "accplace": "ลายัน ซ. 7", "accdate": "01\/07\/2020" }, "geometry": { "type": "Point", "coordinates": [ 98.295294, 8.046069 ] } },
{ "type": "Feature", "properties": { "field_1": 143, "type": "N", "inj": 1, "dead": 0, "lng": 98.367717, "lat": 7.905672, "address": "รัษฎา เมืองภูเก็ต ภูเก็ต", "accplace": "ก่อนถึงร้านเจมบายพาส", "accdate": "01\/07\/2020" }, "geometry": { "type": "Point", "coordinates": [ 98.367717, 7.905672 ] } },
{ "type": "Feature", "properties": { "field_1": 144, "type": "N", "inj": 1, "dead": 0, "lng": 98.332683, "lat": 7.792853, "address": "ราไวย์ เมืองภูเก็ต ภูเก็ต", "accplace": "ควนวิจิตร", "accdate": "01\/07\/2020" }, "geometry": { "type": "Point", "coordinates": [ 98.332683, 7.792853 ] } },
{ "type": "Feature", "properties": { "field_1": 145, "type": "N", "inj": 1, "dead": 0, "lng": 98.395218, "lat": 7.872446, "address": "ตลาดใหญ่ เมืองภูเก็ต ภูเก็ต", "accplace": "ซอยกอไผ่", "accdate": "01\/07\/2020" }, "geometry": { "type": "Point", "coordinates": [ 98.395218, 7.872446 ] } },
{ "type": "Feature", "properties": { "field_1": 146, "type": "N", "inj": 1, "dead": 0, "lng": 98.368108, "lat": 7.860097, "address": "วิชิต เมืองภูเก็ต ภูเก็ต", "accplace": "ปากซอยวิชิตชน", "accdate": "01\/07\/2020" }, "geometry": { "type": "Point", "coordinates": [ 98.368108, 7.860097 ] } },
{ "type": "Feature", "properties": { "field_1": 147, "type": "N", "inj": 2, "dead": 0, "lng": 98.381037, "lat": 7.892953, "address": "ตลาดใหญ่ เมืองภูเก็ต ภูเก็ต", "accplace": "ทางลงเขารัง", "accdate": "01\/07\/2020" }, "geometry": { "type": "Point", "coordinates": [ 98.381037, 7.892953 ] } },
{ "type": "Feature", "properties": { "field_1": 148, "type": "N", "inj": 1, "dead": 0, "lng": 98.313733, "lat": 7.815243, "address": "กะรน เมืองภูเก็ต ภูเก็ต", "accplace": "ซอยปักเจ", "accdate": "01\/07\/2020" }, "geometry": { "type": "Point", "coordinates": [ 98.313733, 7.815243 ] } },
{ "type": "Feature", "properties": { "field_1": 149, "type": "N", "inj": 1, "dead": 0, "lng": 98.388857, "lat": 7.954273, "address": "เกาะแก้ว เมืองภูเก็ต ภูเก็ต", "accplace": "เหตุ ถนนในหมู่บ้านแถวเกาะแก้ว", "accdate": "01\/07\/2020" }, "geometry": { "type": "Point", "coordinates": [ 98.388857, 7.954273 ] } },
{ "type": "Feature", "properties": { "field_1": 150, "type": "N", "inj": 1, "dead": 0, "lng": 98.322838, "lat": 7.78161, "address": "ป่าตอง กะทู้ ภูเก็ต", "accplace": "โคกมะขาม", "accdate": "01\/07\/2020" }, "geometry": { "type": "Point", "coordinates": [ 98.322838, 7.78161 ] } },
{ "type": "Feature", "properties": { "field_1": 151, "type": "N", "inj": 1, "dead": 0, "lng": 98.367604, "lat": 7.896051, "address": "วิชิต เมืองภูเก็ต ภูเก็ต", "accplace": "หน้าบิ๊กซี", "accdate": "01\/07\/2020" }, "geometry": { "type": "Point", "coordinates": [ 98.367604, 7.896051 ] } },
{ "type": "Feature", "properties": { "field_1": 152, "type": "N", "inj": 1, "dead": 0, "lng": 98.360332, "lat": 7.863011, "address": "วิชิต เมืองภูเก็ต ภูเก็ต", "accplace": "ซอยเทพอนุสรณ์", "accdate": "01\/07\/2020" }, "geometry": { "type": "Point", "coordinates": [ 98.360332, 7.863011 ] } },
{ "type": "Feature", "properties": { "field_1": 153, "type": "N", "inj": 1, "dead": 0, "lng": 98.415042, "lat": 7.88585, "address": "รัษฎา เมืองภูเก็ต ภูเก็ต", "accplace": "หมู่บ้านโหนทรายทอง", "accdate": "01\/07\/2020" }, "geometry": { "type": "Point", "coordinates": [ 98.415042, 7.88585 ] } },
{ "type": "Feature", "properties": { "field_1": 154, "type": "N", "inj": 1, "dead": 0, "lng": 98.399513, "lat": 7.889551, "address": "ตลาดใหญ่ เมืองภูเก็ต ภูเก็ต", "accplace": "สี่แยกถนนนริศร", "accdate": "01\/08\/2020" }, "geometry": { "type": "Point", "coordinates": [ 98.399513, 7.889551 ] } },
{ "type": "Feature", "properties": { "field_1": 155, "type": "N", "inj": 1, "dead": 0, "lng": 98.349134, "lat": 7.899894, "address": "กะทู้ กะทู้ ภูเก็ต", "accplace": "ถ.กะทู้ตัดใหม่", "accdate": "01\/08\/2020" }, "geometry": { "type": "Point", "coordinates": [ 98.349134, 7.899894 ] } },
{ "type": "Feature", "properties": { "field_1": 156, "type": "N", "inj": 1, "dead": 0, "lng": 98.337913513184006, "lat": 7.8105301856995002, "address": "ราไวย์ เมืองภูเก็ต ภูเก็ต", "accplace": "หน้ามัสยิดบางคณฑี", "accdate": "01\/08\/2020" }, "geometry": { "type": "Point", "coordinates": [ 98.337913513184006, 7.8105301856995 ] } },
{ "type": "Feature", "properties": { "field_1": 157, "type": "N", "inj": 2, "dead": 0, "lng": 98.311846, "lat": 8.002812, "address": "เชิงทะเล ถลาง ภูเก็ต", "accplace": "ป่าสัก", "accdate": "01\/08\/2020" }, "geometry": { "type": "Point", "coordinates": [ 98.311846, 8.002812 ] } },
{ "type": "Feature", "properties": { "field_1": 158, "type": "N", "inj": 1, "dead": 0, "lng": 98.284195, "lat": 7.956808, "address": "กมลา กะทู้ ภูเก็ต", "accplace": "กมลา", "accdate": "01\/08\/2020" }, "geometry": { "type": "Point", "coordinates": [ 98.284195, 7.956808 ] } },
{ "type": "Feature", "properties": { "field_1": 159, "type": "N", "inj": 1, "dead": 0, "lng": 98.3671, "lat": 7.905694, "address": "รัษฎา เมืองภูเก็ต ภูเก็ต", "accplace": "ถ.เทพกระษัตรี", "accdate": "01\/08\/2020" }, "geometry": { "type": "Point", "coordinates": [ 98.3671, 7.905694 ] } },
{ "type": "Feature", "properties": { "field_1": 160, "type": "N", "inj": 2, "dead": 0, "lng": 98.329627253115007, "lat": 7.7851002285254003, "address": "ราไวย์ เมืองภูเก็ต ภูเก็ต", "accplace": "อนามัยราไวย์", "accdate": "01\/08\/2020" }, "geometry": { "type": "Point", "coordinates": [ 98.329627253115007, 7.7851002285254 ] } },
{ "type": "Feature", "properties": { "field_1": 161, "type": "N", "inj": 1, "dead": 0, "lng": 98.406374, "lat": 8.05855, "address": "ป่าคลอก ถลาง ภูเก็ต", "accplace": "ป่าคลอก", "accdate": "01\/09\/2020" }, "geometry": { "type": "Point", "coordinates": [ 98.406374, 8.05855 ] } },
{ "type": "Feature", "properties": { "field_1": 162, "type": "N", "inj": 1, "dead": 0, "lng": 98.375815, "lat": 7.843027, "address": "วิชิต เมืองภูเก็ต ภูเก็ต", "accplace": "แถวคลองมุดง", "accdate": "01\/09\/2020" }, "geometry": { "type": "Point", "coordinates": [ 98.375815, 7.843027 ] } },
{ "type": "Feature", "properties": { "field_1": 163, "type": "N", "inj": 1, "dead": 0, "lng": 98.330371, "lat": 7.813915, "address": "ราไวย์ เมืองภูเก็ต ภูเก็ต", "accplace": "ราไวย์", "accdate": "01\/09\/2020" }, "geometry": { "type": "Point", "coordinates": [ 98.330371, 7.813915 ] } },
{ "type": "Feature", "properties": { "field_1": 164, "type": "N", "inj": 1, "dead": 0, "lng": 98.379327, "lat": 7.962386, "address": "ตลาดเหนือ เมืองภูเก็ต ภูเก็ต", "accplace": "แยกๆฟแดงทาแคง", "accdate": "01\/09\/2020" }, "geometry": { "type": "Point", "coordinates": [ 98.379327, 7.962386 ] } },
{ "type": "Feature", "properties": { "field_1": 165, "type": "N", "inj": 1, "dead": 0, "lng": 98.338996, "lat": 8.023115, "address": "เทพกระษัตรี ถลาง ภูเก็ต", "accplace": "เหตุเกิดหลังโรงพยาบาลถลาง", "accdate": "01\/09\/2020" }, "geometry": { "type": "Point", "coordinates": [ 98.338996, 8.023115 ] } },
{ "type": "Feature", "properties": { "field_1": 166, "type": "N", "inj": 1, "dead": 0, "lng": 98.394841, "lat": 7.920798, "address": "รัษฎา เมืองภูเก็ต ภูเก็ต", "accplace": "แถวถนนเส้นหลังซุปเปอร์ซิปใหญ่", "accdate": "01\/09\/2020" }, "geometry": { "type": "Point", "coordinates": [ 98.394841, 7.920798 ] } },
{ "type": "Feature", "properties": { "field_1": 167, "type": "N", "inj": 1, "dead": 0, "lng": 98.415189, "lat": 7.885859, "address": "รัษฎา เมืองภูเก็ต ภูเก็ต", "accplace": "ถนนศรีสุทัศน์", "accdate": "01\/09\/2020" }, "geometry": { "type": "Point", "coordinates": [ 98.415189, 7.885859 ] } },
{ "type": "Feature", "properties": { "field_1": 168, "type": "N", "inj": 2, "dead": 0, "lng": 98.354518, "lat": 7.846741, "address": "ฉลอง เมืองภูเก็ต ภูเก็ต", "accplace": "หน้าศาลเจ้ากวนอู", "accdate": "01\/09\/2020" }, "geometry": { "type": "Point", "coordinates": [ 98.354518, 7.846741 ] } },
{ "type": "Feature", "properties": { "field_1": 169, "type": "N", "inj": 1, "dead": 0, "lng": 98.356231, "lat": 7.881301, "address": "วิชิต เมืองภูเก็ต ภูเก็ต", "accplace": "ถนนเหมืองเจ้าฟ้า", "accdate": "01\/09\/2020" }, "geometry": { "type": "Point", "coordinates": [ 98.356231, 7.881301 ] } },
{ "type": "Feature", "properties": { "field_1": 170, "type": "N", "inj": 1, "dead": 0, "lng": 98.375732, "lat": 7.858935, "address": "วิชิต เมืองภูเก็ต ภูเก็ต", "accplace": "เมืองทอง", "accdate": "01\/09\/2020" }, "geometry": { "type": "Point", "coordinates": [ 98.375732, 7.858935 ] } },
{ "type": "Feature", "properties": { "field_1": 171, "type": "N", "inj": 2, "dead": 0, "lng": 98.369484, "lat": 7.902834, "address": "รัษฎา เมืองภูเก็ต ภูเก็ต", "accplace": "โลตัสสามกอง", "accdate": "01\/09\/2020" }, "geometry": { "type": "Point", "coordinates": [ 98.369484, 7.902834 ] } },
{ "type": "Feature", "properties": { "field_1": 172, "type": "N", "inj": 1, "dead": 0, "lng": 98.381453, "lat": 7.879557, "address": "ตลาดเหนือ เมืองภูเก็ต ภูเก็ต", "accplace": "เมือง", "accdate": "01\/09\/2020" }, "geometry": { "type": "Point", "coordinates": [ 98.381453, 7.879557 ] } },
{ "type": "Feature", "properties": { "field_1": 173, "type": "N", "inj": 1, "dead": 0, "lng": 98.332892, "lat": 7.97952, "address": "เชิงทะเล ถลาง ภูเก็ต", "accplace": "ม่าหนิก", "accdate": "01\/09\/2020" }, "geometry": { "type": "Point", "coordinates": [ 98.332892, 7.97952 ] } },
{ "type": "Feature", "properties": { "field_1": 174, "type": "N", "inj": 2, "dead": 0, "lng": 98.303675, "lat": 8.124563, "address": "สาคู ถลาง ภูเก็ต", "accplace": "ข้างวัดไม้ขาว", "accdate": "01\/09\/2020" }, "geometry": { "type": "Point", "coordinates": [ 98.303675, 8.124563 ] } },
{ "type": "Feature", "properties": { "field_1": 175, "type": "N", "inj": 1, "dead": 0, "lng": 98.39993, "lat": 7.90933, "address": "รัษฎา เมืองภูเก็ต ภูเก็ต", "accplace": "เทศบาลรัษฎา", "accdate": "01\/09\/2020" }, "geometry": { "type": "Point", "coordinates": [ 98.39993, 7.90933 ] } },
{ "type": "Feature", "properties": { "field_1": 176, "type": "N", "inj": 1, "dead": 0, "lng": 98.30113, "lat": 7.817235, "address": "กะรน เมืองภูเก็ต ภูเก็ต", "accplace": "กะตะซอย10", "accdate": "01\/10\/2020" }, "geometry": { "type": "Point", "coordinates": [ 98.30113, 7.817235 ] } },
{ "type": "Feature", "properties": { "field_1": 177, "type": "N", "inj": 1, "dead": 0, "lng": 98.390825, "lat": 7.915705, "address": "รัษฎา เมืองภูเก็ต ภูเก็ต", "accplace": "แถวหน้าหมู่บ้านพร้อมพันธ์", "accdate": "01\/10\/2020" }, "geometry": { "type": "Point", "coordinates": [ 98.390825, 7.915705 ] } },
{ "type": "Feature", "properties": { "field_1": 178, "type": "N", "inj": 1, "dead": 0, "lng": 98.39102, "lat": 7.91853, "address": "รัษฎา เมืองภูเก็ต ภูเก็ต", "accplace": "หน้าหมู่บ้านฉลองสุข", "accdate": "01\/10\/2020" }, "geometry": { "type": "Point", "coordinates": [ 98.39102, 7.91853 ] } },
{ "type": "Feature", "properties": { "field_1": 179, "type": "N", "inj": 1, "dead": 0, "lng": 98.364569, "lat": 7.869508, "address": "วิชิต เมืองภูเก็ต ภูเก็ต", "accplace": "วิลล่า 2", "accdate": "01\/10\/2020" }, "geometry": { "type": "Point", "coordinates": [ 98.364569, 7.869508 ] } },
{ "type": "Feature", "properties": { "field_1": 180, "type": "N", "inj": 1, "dead": 0, "lng": 98.411764, "lat": 7.881925, "address": "รัษฎา เมืองภูเก็ต ภูเก็ต", "accplace": "ปากซอยทางเข้าเคหะ13", "accdate": "01\/10\/2020" }, "geometry": { "type": "Point", "coordinates": [ 98.411764, 7.881925 ] } },
{ "type": "Feature", "properties": { "field_1": 181, "type": "N", "inj": 1, "dead": 0, "lng": 98.373307, "lat": 7.90694, "address": "รัษฎา เมืองภูเก็ต ภูเก็ต", "accplace": "ตลาดนัดเกาะสิเหร่", "accdate": "01\/10\/2020" }, "geometry": { "type": "Point", "coordinates": [ 98.373307, 7.90694 ] } },
{ "type": "Feature", "properties": { "field_1": 182, "type": "N", "inj": 1, "dead": 0, "lng": 98.394595, "lat": 7.93684, "address": "เกาะแก้ว เมืองภูเก็ต ภูเก็ต", "accplace": "สะปำ", "accdate": "01\/10\/2020" }, "geometry": { "type": "Point", "coordinates": [ 98.394595, 7.93684 ] } },
{ "type": "Feature", "properties": { "field_1": 183, "type": "N", "inj": 2, "dead": 0, "lng": 98.387446, "lat": 7.884731, "address": "รัษฎา เมืองภูเก็ต ภูเก็ต", "accplace": "แยกโรงเหล็ก", "accdate": "01\/10\/2020" }, "geometry": { "type": "Point", "coordinates": [ 98.387446, 7.884731 ] } },
{ "type": "Feature", "properties": { "field_1": 184, "type": "N", "inj": 1, "dead": 0, "lng": 98.428813, "lat": 7.888146, "address": "รัษฎา เมืองภูเก็ต ภูเก็ต", "accplace": "แยกเกาะสิเหร่", "accdate": "01\/10\/2020" }, "geometry": { "type": "Point", "coordinates": [ 98.428813, 7.888146 ] } },
{ "type": "Feature", "properties": { "field_1": 185, "type": "N", "inj": 1, "dead": 0, "lng": 98.385266, "lat": 7.880179, "address": "ตลาดใหญ่ เมืองภูเก็ต ภูเก็ต", "accplace": "แยหไฟแดงถนนบางกอก", "accdate": "01\/10\/2020" }, "geometry": { "type": "Point", "coordinates": [ 98.385266, 7.880179 ] } },
{ "type": "Feature", "properties": { "field_1": 186, "type": "N", "inj": 1, "dead": 0, "lng": 98.35729, "lat": 7.848521, "address": "ฉลอง เมืองภูเก็ต ภูเก็ต", "accplace": "หน้่บ้่นเลขที่ 69\/566 หมู่บ้านเจ้าฟ้าการ์เด้นโฮม", "accdate": "01\/10\/2020" }, "geometry": { "type": "Point", "coordinates": [ 98.35729, 7.848521 ] } },
{ "type": "Feature", "properties": { "field_1": 187, "type": "N", "inj": 1, "dead": 0, "lng": 98.294554, "lat": 7.88228, "address": "ป่าตอง กะทู้ ภูเก็ต", "accplace": "ถนนพระเมตตา", "accdate": "01\/10\/2020" }, "geometry": { "type": "Point", "coordinates": [ 98.294554, 7.88228 ] } },
{ "type": "Feature", "properties": { "field_1": 188, "type": "N", "inj": 2, "dead": 0, "lng": 98.374158, "lat": 7.906875, "address": "รัษฎา เมืองภูเก็ต ภูเก็ต", "accplace": "หน้าโรงเรียนเทศบาลบ้านสามกอง", "accdate": "01\/10\/2020" }, "geometry": { "type": "Point", "coordinates": [ 98.374158, 7.906875 ] } },
{ "type": "Feature", "properties": { "field_1": 189, "type": "N", "inj": 1, "dead": 0, "lng": 98.396441, "lat": 7.871512, "address": "ตลาดใหญ่ เมืองภูเก็ต ภูเก็ต", "accplace": "สะพานหิน", "accdate": "01\/10\/2020" }, "geometry": { "type": "Point", "coordinates": [ 98.396441, 7.871512 ] } },
{ "type": "Feature", "properties": { "field_1": 190, "type": "N", "inj": 1, "dead": 0, "lng": 98.347322, "lat": 7.835521, "address": "ฉลอง เมืองภูเก็ต ภูเก็ต", "accplace": "วัดลัฎฐิวนาราม", "accdate": "01\/10\/2020" }, "geometry": { "type": "Point", "coordinates": [ 98.347322, 7.835521 ] } },
{ "type": "Feature", "properties": { "field_1": 191, "type": "N", "inj": 1, "dead": 0, "lng": 98.382969, "lat": 7.883287, "address": "ตลาดเหนือ เมืองภูเก็ต ภูเก็ต", "accplace": "บริเวณทางออกศาลเจ้าจุ้ยตุ่ย", "accdate": "01\/10\/2020" }, "geometry": { "type": "Point", "coordinates": [ 98.382969, 7.883287 ] } },
{ "type": "Feature", "properties": { "field_1": 192, "type": "N", "inj": 1, "dead": 0, "lng": 98.381131, "lat": 7.8928, "address": "ตลาดใหญ่ เมืองภูเก็ต ภูเก็ต", "accplace": "เขารัง", "accdate": "01\/10\/2020" }, "geometry": { "type": "Point", "coordinates": [ 98.381131, 7.8928 ] } },
{ "type": "Feature", "properties": { "field_1": 193, "type": "N", "inj": 1, "dead": 0, "lng": 98.345296, "lat": 7.853363, "address": "ฉลอง เมืองภูเก็ต ภูเก็ต", "accplace": "ซอยตาเอียด แถวฉลอง", "accdate": "01\/10\/2020" }, "geometry": { "type": "Point", "coordinates": [ 98.345296, 7.853363 ] } },
{ "type": "Feature", "properties": { "field_1": 194, "type": "N", "inj": 1, "dead": 0, "lng": 98.382181, "lat": 7.900075, "address": "ตลาดใหญ่ เมืองภูเก็ต ภูเก็ต", "accplace": "เลยกล้วยน้ำว้า", "accdate": "01\/10\/2020" }, "geometry": { "type": "Point", "coordinates": [ 98.382181, 7.900075 ] } },
{ "type": "Feature", "properties": { "field_1": 195, "type": "N", "inj": 1, "dead": 0, "lng": 98.399214, "lat": 7.933136, "address": "รัษฎา เมืองภูเก็ต ภูเก็ต", "accplace": "แหลมหิน", "accdate": "01\/10\/2020" }, "geometry": { "type": "Point", "coordinates": [ 98.399214, 7.933136 ] } },
{ "type": "Feature", "properties": { "field_1": 196, "type": "N", "inj": 1, "dead": 0, "lng": 98.321166, "lat": 7.796912, "address": "ราไวย์ เมืองภูเก็ต ภูเก็ต", "accplace": "สามัคคี2", "accdate": "01\/11\/2020" }, "geometry": { "type": "Point", "coordinates": [ 98.321166, 7.796912 ] } },
{ "type": "Feature", "properties": { "field_1": 197, "type": "N", "inj": 1, "dead": 0, "lng": 98.382338, "lat": 7.847333, "address": "วิชิต เมืองภูเก็ต ภูเก็ต", "accplace": "แม็คโคร", "accdate": "01\/11\/2020" }, "geometry": { "type": "Point", "coordinates": [ 98.382338, 7.847333 ] } },
{ "type": "Feature", "properties": { "field_1": 198, "type": "N", "inj": 2, "dead": 0, "lng": 98.351691, "lat": 7.904258, "address": "กะทู้ กะทู้ ภูเก็ต", "accplace": "หน้าสวนสาธรณ กะทู้", "accdate": "01\/11\/2020" }, "geometry": { "type": "Point", "coordinates": [ 98.351691, 7.904258 ] } },
{ "type": "Feature", "properties": { "field_1": 199, "type": "N", "inj": 1, "dead": 0, "lng": 98.306988, "lat": 7.881923, "address": "กะทู้ กะทู้ ภูเก็ต", "accplace": "บริเวณเขาป่าตอง", "accdate": "01\/11\/2020" }, "geometry": { "type": "Point", "coordinates": [ 98.306988, 7.881923 ] } },
{ "type": "Feature", "properties": { "field_1": 200, "type": "Y", "inj": 0, "dead": 1, "lng": 98.346843, "lat": 8.0018, "address": "ศรีสุนทร ถลาง ภูเก็ต", "accplace": "ราชารถตู้", "accdate": "01\/11\/2020" }, "geometry": { "type": "Point", "coordinates": [ 98.346843, 8.0018 ] } },
{ "type": "Feature", "properties": { "field_1": 201, "type": "N", "inj": 2, "dead": 0, "lng": 98.299326, "lat": 7.821061, "address": "กะรน เมืองภูเก็ต ภูเก็ต", "accplace": "กะตะ", "accdate": "01\/11\/2020" }, "geometry": { "type": "Point", "coordinates": [ 98.299326, 7.821061 ] } },
{ "type": "Feature", "properties": { "field_1": 202, "type": "N", "inj": 1, "dead": 0, "lng": 98.336162120104007, "lat": 7.9027266145177002, "address": "กะทู้ กะทู้ ภูเก็ต", "accplace": "เซเว่น ซอยบางทอง", "accdate": "01\/11\/2020" }, "geometry": { "type": "Point", "coordinates": [ 98.336162120104007, 7.9027266145177 ] } },
{ "type": "Feature", "properties": { "field_1": 203, "type": "N", "inj": 1, "dead": 0, "lng": 98.346075, "lat": 7.825107, "address": "ฉลอง เมืองภูเก็ต ภูเก็ต", "accplace": "ร้านกันเอง 2", "accdate": "01\/11\/2020" }, "geometry": { "type": "Point", "coordinates": [ 98.346075, 7.825107 ] } },
{ "type": "Feature", "properties": { "field_1": 204, "type": "N", "inj": 2, "dead": 0, "lng": 98.322725, "lat": 8.016519, "address": "เทพกระษัตรี ถลาง ภูเก็ต", "accplace": "บ้านดอน", "accdate": "01\/11\/2020" }, "geometry": { "type": "Point", "coordinates": [ 98.322725, 8.016519 ] } },
{ "type": "Feature", "properties": { "field_1": 205, "type": "N", "inj": 2, "dead": 0, "lng": 98.358072, "lat": 7.843189, "address": "ฉลอง เมืองภูเก็ต ภูเก็ต", "accplace": "แถวสวนสัตว์ภูเก็ต", "accdate": "01\/11\/2020" }, "geometry": { "type": "Point", "coordinates": [ 98.358072, 7.843189 ] } },
{ "type": "Feature", "properties": { "field_1": 206, "type": "N", "inj": 1, "dead": 0, "lng": 98.310239, "lat": 7.784145, "address": "ราไวย์ เมืองภูเก็ต ภูเก็ต", "accplace": "ซอยนายะ", "accdate": "01\/11\/2020" }, "geometry": { "type": "Point", "coordinates": [ 98.310239, 7.784145 ] } },
{ "type": "Feature", "properties": { "field_1": 207, "type": "N", "inj": 1, "dead": 0, "lng": 98.397996, "lat": 7.878923, "address": "ตลาดเหนือ เมืองภูเก็ต ภูเก็ต", "accplace": "วงเวียนม้าน้ำ", "accdate": "01\/11\/2020" }, "geometry": { "type": "Point", "coordinates": [ 98.397996, 7.878923 ] } },
{ "type": "Feature", "properties": { "field_1": 208, "type": "N", "inj": 1, "dead": 0, "lng": 98.366282, "lat": 7.89693, "address": "กะทู้ กะทู้ ภูเก็ต", "accplace": "แยกบางใหญ่", "accdate": "01\/11\/2020" }, "geometry": { "type": "Point", "coordinates": [ 98.366282, 7.89693 ] } },
{ "type": "Feature", "properties": { "field_1": 209, "type": "N", "inj": 1, "dead": 0, "lng": 98.403887, "lat": 7.885489, "address": "ตลาดใหญ่ เมืองภูเก็ต ภูเก็ต", "accplace": "สี่แยกอำเภอ", "accdate": "01\/11\/2020" }, "geometry": { "type": "Point", "coordinates": [ 98.403887, 7.885489 ] } },
{ "type": "Feature", "properties": { "field_1": 210, "type": "N", "inj": 1, "dead": 0, "lng": 98.366035, "lat": 7.873667, "address": "วิชิต เมืองภูเก็ต ภูเก็ต", "accplace": "สวนหลวง", "accdate": "01\/11\/2020" }, "geometry": { "type": "Point", "coordinates": [ 98.366035, 7.873667 ] } },
{ "type": "Feature", "properties": { "field_1": 211, "type": "N", "inj": 1, "dead": 0, "lng": 98.383772, "lat": 7.912142, "address": "รัษฎา เมืองภูเก็ต ภูเก็ต", "accplace": "ก่อนถึงไฟแดงราชภัฎ", "accdate": "01\/11\/2020" }, "geometry": { "type": "Point", "coordinates": [ 98.383772, 7.912142 ] } },
{ "type": "Feature", "properties": { "field_1": 212, "type": "N", "inj": 1, "dead": 0, "lng": 98.30676, "lat": 7.816529, "address": "วิชิต เมืองภูเก็ต ภูเก็ต", "accplace": "ซอยโคกโตนด5", "accdate": "01\/12\/2020" }, "geometry": { "type": "Point", "coordinates": [ 98.30676, 7.816529 ] } },
{ "type": "Feature", "properties": { "field_1": 213, "type": "N", "inj": 1, "dead": 0, "lng": 98.39372, "lat": 7.874262, "address": "ตลาดใหญ่ เมืองภูเก็ต ภูเก็ต", "accplace": "ก่อนถึงแยกบางเหนียว", "accdate": "01\/12\/2020" }, "geometry": { "type": "Point", "coordinates": [ 98.39372, 7.874262 ] } },
{ "type": "Feature", "properties": { "field_1": 214, "type": "N", "inj": 2, "dead": 0, "lng": 98.400744, "lat": 7.825258, "address": "ราไวย์ เมืองภูเก็ต ภูเก็ต", "accplace": "สามแยกซุปเปอร์ชีปราไวย์", "accdate": "01\/12\/2020" }, "geometry": { "type": "Point", "coordinates": [ 98.400744, 7.825258 ] } },
{ "type": "Feature", "properties": { "field_1": 215, "type": "N", "inj": 1, "dead": 0, "lng": 98.34358, "lat": 8.004685, "address": "ศรีสุนทร ถลาง ภูเก็ต", "accplace": "บริเวณปั้มบางจาก ถนนเทพกระษัตรีฝั่งขาออก", "accdate": "01\/12\/2020" }, "geometry": { "type": "Point", "coordinates": [ 98.34358, 8.004685 ] } },
{ "type": "Feature", "properties": { "field_1": 216, "type": "N", "inj": 1, "dead": 0, "lng": 98.349401, "lat": 7.899856, "address": "กะทู้ กะทู้ ภูเก็ต", "accplace": "หน้าครัวทุ่งทอง", "accdate": "01\/12\/2020" }, "geometry": { "type": "Point", "coordinates": [ 98.349401, 7.899856 ] } },
{ "type": "Feature", "properties": { "field_1": 217, "type": "N", "inj": 2, "dead": 0, "lng": 98.318792, "lat": 8.157911, "address": "ไม้ขาว ถลาง ภูเก็ต", "accplace": "เหตุเกิดที่หน้าชุปเปอร์ชิปบ้านหยิด", "accdate": "01\/12\/2020" }, "geometry": { "type": "Point", "coordinates": [ 98.318792, 8.157911 ] } },
{ "type": "Feature", "properties": { "field_1": 218, "type": "N", "inj": 1, "dead": 0, "lng": 98.394473, "lat": 7.888004, "address": "ตลาดใหญ่ เมืองภูเก็ต ภูเก็ต", "accplace": "แถวหน้าวัดควน", "accdate": "01\/12\/2020" }, "geometry": { "type": "Point", "coordinates": [ 98.394473, 7.888004 ] } },
{ "type": "Feature", "properties": { "field_1": 219, "type": "N", "inj": 1, "dead": 0, "lng": 98.37692, "lat": 7.859061, "address": "วิชิต เมืองภูเก็ต ภูเก็ต", "accplace": "วงเวียนเมืองทอง", "accdate": "01\/12\/2020" }, "geometry": { "type": "Point", "coordinates": [ 98.37692, 7.859061 ] } },
{ "type": "Feature", "properties": { "field_1": 220, "type": "N", "inj": 1, "dead": 0, "lng": 98.383854, "lat": 7.896862, "address": "ตลาดใหญ่ เมืองภูเก็ต ภูเก็ต", "accplace": "หน้า รพ วชิระ", "accdate": "01\/12\/2020" }, "geometry": { "type": "Point", "coordinates": [ 98.383854, 7.896862 ] } },
{ "type": "Feature", "properties": { "field_1": 221, "type": "N", "inj": 2, "dead": 0, "lng": 98.410697, "lat": 7.880874, "address": "รัษฎา เมืองภูเก็ต ภูเก็ต", "accplace": "คอพานเคหะ", "accdate": "01\/12\/2020" }, "geometry": { "type": "Point", "coordinates": [ 98.410697, 7.880874 ] } },
{ "type": "Feature", "properties": { "field_1": 222, "type": "N", "inj": 2, "dead": 0, "lng": 98.368485, "lat": 7.861267, "address": "วิชิต เมืองภูเก็ต ภูเก็ต", "accplace": "หน้าตลาดนัดวัดเทพฯ", "accdate": "01\/12\/2020" }, "geometry": { "type": "Point", "coordinates": [ 98.368485, 7.861267 ] } },
{ "type": "Feature", "properties": { "field_1": 223, "type": "N", "inj": 1, "dead": 0, "lng": 98.376924, "lat": 7.859057, "address": "วิชิต เมืองภูเก็ต ภูเก็ต", "accplace": "วงเวียนเมืองทอง", "accdate": "01\/12\/2020" }, "geometry": { "type": "Point", "coordinates": [ 98.376924, 7.859057 ] } },
{ "type": "Feature", "properties": { "field_1": 224, "type": "N", "inj": 1, "dead": 0, "lng": 98.367249, "lat": 7.889762, "address": "วิชิต เมืองภูเก็ต ภูเก็ต", "accplace": "โค้งเซ็นทรัล", "accdate": "01\/12\/2020" }, "geometry": { "type": "Point", "coordinates": [ 98.367249, 7.889762 ] } },
{ "type": "Feature", "properties": { "field_1": 225, "type": "N", "inj": 2, "dead": 0, "lng": 98.301936, "lat": 7.896654, "address": "ป่าตอง กะทู้ ภูเก็ต", "accplace": "เซ็นทราลาป่าตอง", "accdate": "01\/12\/2020" }, "geometry": { "type": "Point", "coordinates": [ 98.301936, 7.896654 ] } },
{ "type": "Feature", "properties": { "field_1": 226, "type": "N", "inj": 1, "dead": 0, "lng": 98.3505957, "lat": 7.9974396, "address": "ศรีสุนทร ถลาง ภูเก็ต", "accplace": "แยกไฟแดงเขาล้าน", "accdate": "01\/12\/2020" }, "geometry": { "type": "Point", "coordinates": [ 98.3505957, 7.9974396 ] } },
{ "type": "Feature", "properties": { "field_1": 227, "type": "N", "inj": 1, "dead": 0, "lng": 98.395722, "lat": 7.879926, "address": "ตลาดใหญ่ เมืองภูเก็ต ภูเก็ต", "accplace": "บริเวณหลังExpo ถ.ชนะเจริญ", "accdate": "01\/12\/2020" }, "geometry": { "type": "Point", "coordinates": [ 98.395722, 7.879926 ] } },
{ "type": "Feature", "properties": { "field_1": 228, "type": "N", "inj": 1, "dead": 0, "lng": 98.340525, "lat": 7.820564, "address": "ราไวย์ เมืองภูเก็ต ภูเก็ต", "accplace": "หน้าซุปเปอร์ชีปราไวย์", "accdate": "02\/01\/2020" }, "geometry": { "type": "Point", "coordinates": [ 98.340525, 7.820564 ] } },
{ "type": "Feature", "properties": { "field_1": 229, "type": "N", "inj": 1, "dead": 0, "lng": 98.424475, "lat": 7.882557, "address": "รัษฎา เมืองภูเก็ต ภูเก็ต", "accplace": "หน้าบ้านตะวันฉาย", "accdate": "02\/01\/2020" }, "geometry": { "type": "Point", "coordinates": [ 98.424475, 7.882557 ] } },
{ "type": "Feature", "properties": { "field_1": 230, "type": "N", "inj": 1, "dead": 0, "lng": 98.306229, "lat": 7.79543, "address": "ราไวย์ เมืองภูเก็ต ภูเก็ต", "accplace": "ปางช้างใสยวน", "accdate": "02\/01\/2020" }, "geometry": { "type": "Point", "coordinates": [ 98.306229, 7.79543 ] } },
{ "type": "Feature", "properties": { "field_1": 231, "type": "N", "inj": 2, "dead": 0, "lng": 98.294197, "lat": 7.84395, "address": "กะรน เมืองภูเก็ต ภูเก็ต", "accplace": "ทางลงเขาไปหาดกะรน", "accdate": "02\/01\/2020" }, "geometry": { "type": "Point", "coordinates": [ 98.294197, 7.84395 ] } },
{ "type": "Feature", "properties": { "field_1": 232, "type": "N", "inj": 1, "dead": 0, "lng": 98.337356567382997, "lat": 7.8077907562256001, "address": "ราไวย์ เมืองภูเก็ต ภูเก็ต", "accplace": "หน้ามัสยิดบางคณฑี", "accdate": "02\/01\/2020" }, "geometry": { "type": "Point", "coordinates": [ 98.337356567382997, 7.8077907562256 ] } },
{ "type": "Feature", "properties": { "field_1": 233, "type": "N", "inj": 1, "dead": 0, "lng": 98.394078, "lat": 7.870618, "address": "ตลาดใหญ่ เมืองภูเก็ต ภูเก็ต", "accplace": "หน้าตำรวจน้ำ", "accdate": "02\/01\/2020" }, "geometry": { "type": "Point", "coordinates": [ 98.394078, 7.870618 ] } },
{ "type": "Feature", "properties": { "field_1": 234, "type": "N", "inj": 2, "dead": 0, "lng": 98.306699, "lat": 7.769607, "address": "ราไวย์ เมืองภูเก็ต ภูเก็ต", "accplace": "กังหันลม", "accdate": "02\/01\/2020" }, "geometry": { "type": "Point", "coordinates": [ 98.306699, 7.769607 ] } },
{ "type": "Feature", "properties": { "field_1": 235, "type": "N", "inj": 1, "dead": 0, "lng": 98.352442, "lat": 7.894066, "address": "กะทู้ กะทู้ ภูเก็ต", "accplace": "ในมอ.ภูเก็ต", "accdate": "02\/01\/2020" }, "geometry": { "type": "Point", "coordinates": [ 98.352442, 7.894066 ] } },
{ "type": "Feature", "properties": { "field_1": 236, "type": "N", "inj": 1, "dead": 0, "lng": 98.409371, "lat": 8.057507, "address": "ป่าคลอก ถลาง ภูเก็ต", "accplace": "หน้าปั๊ม ปตท.ป่าคลอก", "accdate": "02\/01\/2020" }, "geometry": { "type": "Point", "coordinates": [ 98.409371, 8.057507 ] } },
{ "type": "Feature", "properties": { "field_1": 237, "type": "N", "inj": 2, "dead": 0, "lng": 98.430768, "lat": 7.8857, "address": "รัษฎา เมืองภูเก็ต ภูเก็ต", "accplace": "ทางเข้าท่าเรือเกาะสิเหร่", "accdate": "02\/01\/2020" }, "geometry": { "type": "Point", "coordinates": [ 98.430768, 7.8857 ] } },
{ "type": "Feature", "properties": { "field_1": 238, "type": "N", "inj": 1, "dead": 0, "lng": 98.333804, "lat": 7.910733, "address": "กะทู้ กะทู้ ภูเก็ต", "accplace": "ทางขึ้นเขาป่าตอง", "accdate": "02\/01\/2020" }, "geometry": { "type": "Point", "coordinates": [ 98.333804, 7.910733 ] } },
{ "type": "Feature", "properties": { "field_1": 239, "type": "N", "inj": 1, "dead": 0, "lng": 98.395558, "lat": 7.86328, "address": "ตลาดเหนือ เมืองภูเก็ต ภูเก็ต", "accplace": "เตาเผาขยะสะพานหิน", "accdate": "02\/01\/2020" }, "geometry": { "type": "Point", "coordinates": [ 98.395558, 7.86328 ] } },
{ "type": "Feature", "properties": { "field_1": 240, "type": "N", "inj": 1, "dead": 0, "lng": 98.294171, "lat": 7.844041, "address": "กะรน เมืองภูเก็ต ภูเก็ต", "accplace": "ทางเข้าหนองหาน กะรน", "accdate": "02\/01\/2020" }, "geometry": { "type": "Point", "coordinates": [ 98.294171, 7.844041 ] } },
{ "type": "Feature", "properties": { "field_1": 241, "type": "N", "inj": 1, "dead": 0, "lng": 98.371196, "lat": 7.915775, "address": "กะทู้ กะทู้ ภูเก็ต", "accplace": "หน้าร้านนายกหมูกะทะ กะทู้", "accdate": "02\/01\/2020" }, "geometry": { "type": "Point", "coordinates": [ 98.371196, 7.915775 ] } },
{ "type": "Feature", "properties": { "field_1": 242, "type": "N", "inj": 1, "dead": 0, "lng": 98.333469, "lat": 7.911348, "address": "กะทู้ กะทู้ ภูเก็ต", "accplace": "หน้าตลาดกะทู้", "accdate": "02\/01\/2020" }, "geometry": { "type": "Point", "coordinates": [ 98.333469, 7.911348 ] } },
{ "type": "Feature", "properties": { "field_1": 243, "type": "N", "inj": 2, "dead": 0, "lng": 98.386494, "lat": 7.88559, "address": "รัษฎา เมืองภูเก็ต ภูเก็ต", "accplace": "หน้าพิพิธภัณฑ์หอย", "accdate": "02\/01\/2020" }, "geometry": { "type": "Point", "coordinates": [ 98.386494, 7.88559 ] } },
{ "type": "Feature", "properties": { "field_1": 244, "type": "N", "inj": 1, "dead": 0, "lng": 98.357151, "lat": 7.858193, "address": "วิชิต เมืองภูเก็ต ภูเก็ต", "accplace": "แถวถ.ขวาง", "accdate": "02\/01\/2020" }, "geometry": { "type": "Point", "coordinates": [ 98.357151, 7.858193 ] } },
{ "type": "Feature", "properties": { "field_1": 245, "type": "N", "inj": 1, "dead": 0, "lng": 98.400173, "lat": 7.861903, "address": "วิชิต เมืองภูเก็ต ภูเก็ต", "accplace": "สายหลังสะพานหิน", "accdate": "02\/01\/2020" }, "geometry": { "type": "Point", "coordinates": [ 98.400173, 7.861903 ] } },
{ "type": "Feature", "properties": { "field_1": 246, "type": "N", "inj": 1, "dead": 0, "lng": 98.304592, "lat": 7.903909, "address": "ป่าตอง กะทู้ ภูเก็ต", "accplace": "หน้าซุปเปอร์ชีป ถ.สาย ก.", "accdate": "02\/01\/2020" }, "geometry": { "type": "Point", "coordinates": [ 98.304592, 7.903909 ] } },
{ "type": "Feature", "properties": { "field_1": 247, "type": "N", "inj": 1, "dead": 0, "lng": 98.318047, "lat": 8.016152, "address": "เชิงทะเล ถลาง ภูเก็ต", "accplace": "หน้าเซเว่นชุมชนบ้านดอน", "accdate": "02\/01\/2020" }, "geometry": { "type": "Point", "coordinates": [ 98.318047, 8.016152 ] } },
{ "type": "Feature", "properties": { "field_1": 248, "type": "N", "inj": 1, "dead": 0, "lng": 98.376448, "lat": 7.914347, "address": "สามกอง เมืองภูเก็ต ภูเก็ต", "accplace": "แถวซอยพระเนียง", "accdate": "02\/01\/2020" }, "geometry": { "type": "Point", "coordinates": [ 98.376448, 7.914347 ] } },
{ "type": "Feature", "properties": { "field_1": 249, "type": "N", "inj": 1, "dead": 0, "lng": 98.333473, "lat": 7.911334, "address": "กะทู้ กะทู้ ภูเก็ต", "accplace": "ตลาดสดกะทู้", "accdate": "02\/01\/2020" }, "geometry": { "type": "Point", "coordinates": [ 98.333473, 7.911334 ] } },
{ "type": "Feature", "properties": { "field_1": 250, "type": "N", "inj": 1, "dead": 0, "lng": 98.336170166730994, "lat": 8.1232598988882003, "address": "เทพกระษัตรี ถลาง ภูเก็ต", "accplace": "เหตุเกิด ใกล้ ปตท.เมืองใหม่", "accdate": "02\/01\/2020" }, "geometry": { "type": "Point", "coordinates": [ 98.336170166730994, 8.1232598988882 ] } },
{ "type": "Feature", "properties": { "field_1": 251, "type": "N", "inj": 2, "dead": 0, "lng": 98.361287, "lat": 7.873291, "address": "วิชิต เมืองภูเก็ต ภูเก็ต", "accplace": "หน้า King Power", "accdate": "02\/01\/2020" }, "geometry": { "type": "Point", "coordinates": [ 98.361287, 7.873291 ] } },
{ "type": "Feature", "properties": { "field_1": 253, "type": "N", "inj": 2, "dead": 0, "lng": 98.387958, "lat": 7.894066, "address": "ตลาดใหญ่ เมืองภูเก็ต ภูเก็ต", "accplace": "ถนนนคร หน้าบ้านพักครูเทคนิค", "accdate": "02\/01\/2020" }, "geometry": { "type": "Point", "coordinates": [ 98.387958, 7.894066 ] } },
{ "type": "Feature", "properties": { "field_1": 254, "type": "N", "inj": 1, "dead": 0, "lng": 98.368787, "lat": 7.90309, "address": "กมลา กะทู้ ภูเก็ต", "accplace": "สามแยกไฟแดงสามกองโลตัส", "accdate": "02\/02\/2020" }, "geometry": { "type": "Point", "coordinates": [ 98.368787, 7.90309 ] } },
{ "type": "Feature", "properties": { "field_1": 255, "type": "N", "inj": 1, "dead": 0, "lng": 98.34409, "lat": 8.071431, "address": "เทพกระษัตรี ถลาง ภูเก็ต", "accplace": "ป่าครองชีพ", "accdate": "02\/02\/2020" }, "geometry": { "type": "Point", "coordinates": [ 98.34409, 8.071431 ] } },
{ "type": "Feature", "properties": { "field_1": 256, "type": "N", "inj": 1, "dead": 0, "lng": 98.292803540826, "lat": 8.0167876938491993, "address": "เทพกระษัตรี ถลาง ภูเก็ต", "accplace": "ทางเข้าธัญปุระ", "accdate": "02\/02\/2020" }, "geometry": { "type": "Point", "coordinates": [ 98.292803540826, 8.016787693849199 ] } },
{ "type": "Feature", "properties": { "field_1": 257, "type": "N", "inj": 1, "dead": 0, "lng": 98.388108, "lat": 7.930665, "address": "รัษฎา เมืองภูเก็ต ภูเก็ต", "accplace": "ควนดินแดง", "accdate": "02\/02\/2020" }, "geometry": { "type": "Point", "coordinates": [ 98.388108, 7.930665 ] } },
{ "type": "Feature", "properties": { "field_1": 258, "type": "N", "inj": 1, "dead": 0, "lng": 98.307, "lat": 7.881963, "address": "ป่าตอง กะทู้ ภูเก็ต", "accplace": "บนเขาป่าตอง", "accdate": "02\/02\/2020" }, "geometry": { "type": "Point", "coordinates": [ 98.307, 7.881963 ] } },
{ "type": "Feature", "properties": { "field_1": 259, "type": "N", "inj": 2, "dead": 0, "lng": 98.296804, "lat": 7.893578, "address": "กะรน เมืองภูเก็ต ภูเก็ต", "accplace": "แยกบางลา + เลียบหาดกะรน", "accdate": "02\/02\/2020" }, "geometry": { "type": "Point", "coordinates": [ 98.296804, 7.893578 ] } },
{ "type": "Feature", "properties": { "field_1": 260, "type": "N", "inj": 1, "dead": 0, "lng": 98.370974, "lat": 7.856155, "address": "วิชิต เมืองภูเก็ต ภูเก็ต", "accplace": "สุขนิรันดร์ ซอย2", "accdate": "02\/02\/2020" }, "geometry": { "type": "Point", "coordinates": [ 98.370974, 7.856155 ] } },
{ "type": "Feature", "properties": { "field_1": 261, "type": "N", "inj": 1, "dead": 0, "lng": 98.367857, "lat": 7.903381, "address": "รัษฎา เมืองภูเก็ต ภูเก็ต", "accplace": "ควนดินแดง", "accdate": "02\/02\/2020" }, "geometry": { "type": "Point", "coordinates": [ 98.367857, 7.903381 ] } },
{ "type": "Feature", "properties": { "field_1": 262, "type": "N", "inj": 1, "dead": 0, "lng": 98.417828, "lat": 7.880157, "address": "รัษฎา เมืองภูเก็ต ภูเก็ต", "accplace": "ท่าเทียบเรือองค์การสะพานปลา", "accdate": "02\/02\/2020" }, "geometry": { "type": "Point", "coordinates": [ 98.417828, 7.880157 ] } },
{ "type": "Feature", "properties": { "field_1": 263, "type": "N", "inj": 1, "dead": 0, "lng": 98.375137, "lat": 7.907167, "address": "สามกอง เมืองภูเก็ต ภูเก็ต", "accplace": "ซอยพะเนียงแถวอ๊ามสามกอง", "accdate": "02\/02\/2020" }, "geometry": { "type": "Point", "coordinates": [ 98.375137, 7.907167 ] } },
{ "type": "Feature", "properties": { "field_1": 264, "type": "N", "inj": 1, "dead": 0, "lng": 98.302536, "lat": 8.011392, "address": "เชิงทะเล ถลาง ภูเก็ต", "accplace": "เชิงทะเล", "accdate": "02\/02\/2020" }, "geometry": { "type": "Point", "coordinates": [ 98.302536, 8.011392 ] } },
{ "type": "Feature", "properties": { "field_1": 265, "type": "Y", "inj": 0, "dead": 1, "lng": 98.375819, "lat": 7.920747, "address": "รัษฎา เมืองภูเก็ต ภูเก็ต", "accplace": "ถนน ประชาอุทิศ", "accdate": "02\/02\/2020" }, "geometry": { "type": "Point", "coordinates": [ 98.375819, 7.920747 ] } },
{ "type": "Feature", "properties": { "field_1": 266, "type": "N", "inj": 1, "dead": 0, "lng": 98.324501, "lat": 7.830929, "address": "ฉลอง เมืองภูเก็ต ภูเก็ต", "accplace": "ซอยยอดเสน่ห์", "accdate": "02\/02\/2020" }, "geometry": { "type": "Point", "coordinates": [ 98.324501, 7.830929 ] } },
{ "type": "Feature", "properties": { "field_1": 267, "type": "N", "inj": 1, "dead": 0, "lng": 98.321182653308, "lat": 8.0164341141678008, "address": "เทพกระษัตรี ถลาง ภูเก็ต", "accplace": "หน้าซุปเปอร์ชิบบ้านดอน", "accdate": "02\/02\/2020" }, "geometry": { "type": "Point", "coordinates": [ 98.321182653308, 8.016434114167801 ] } },
{ "type": "Feature", "properties": { "field_1": 268, "type": "N", "inj": 1, "dead": 0, "lng": 98.343929, "lat": 8.074855, "address": "เทพกระษัตรี ถลาง ภูเก็ต", "accplace": "หน้าปั๊ม ปตท.เมืองใหม่", "accdate": "02\/02\/2020" }, "geometry": { "type": "Point", "coordinates": [ 98.343929, 8.074855 ] } },
{ "type": "Feature", "properties": { "field_1": 269, "type": "N", "inj": 1, "dead": 0, "lng": 98.368778, "lat": 7.903158, "address": "วิชิต เมืองภูเก็ต ภูเก็ต", "accplace": "โลตัสสามกอง", "accdate": "02\/02\/2020" }, "geometry": { "type": "Point", "coordinates": [ 98.368778, 7.903158 ] } },
{ "type": "Feature", "properties": { "field_1": 270, "type": "N", "inj": 1, "dead": 0, "lng": 98.34838, "lat": 7.836704, "address": "ฉลอง เมืองภูเก็ต ภูเก็ต", "accplace": "ทางเขากะตะโค้งสะตอ", "accdate": "02\/02\/2020" }, "geometry": { "type": "Point", "coordinates": [ 98.34838, 7.836704 ] } },
{ "type": "Feature", "properties": { "field_1": 271, "type": "N", "inj": 2, "dead": 0, "lng": 98.342587687074996, "lat": 7.9118620317471997, "address": "กะทู้ กะทู้ ภูเก็ต", "accplace": "ตลาดเอวา", "accdate": "02\/02\/2020" }, "geometry": { "type": "Point", "coordinates": [ 98.342587687074996, 7.9118620317472 ] } },
{ "type": "Feature", "properties": { "field_1": 272, "type": "N", "inj": 1, "dead": 0, "lng": 98.341359, "lat": 8.068047, "address": "เทพกระษัตรี ถลาง ภูเก็ต", "accplace": "โรงเรียนเมืองถลาง", "accdate": "02\/02\/2020" }, "geometry": { "type": "Point", "coordinates": [ 98.341359, 8.068047 ] } },
{ "type": "Feature", "properties": { "field_1": 273, "type": "N", "inj": 1, "dead": 0, "lng": 98.299283087253997, "lat": 7.8868390284947001, "address": "ป่าตอง กะทู้ ภูเก็ต", "accplace": "ซอยน้ำเสีย", "accdate": "02\/02\/2020" }, "geometry": { "type": "Point", "coordinates": [ 98.299283087253997, 7.8868390284947 ] } },
{ "type": "Feature", "properties": { "field_1": 274, "type": "N", "inj": 1, "dead": 0, "lng": 98.380342, "lat": 7.859204, "address": "วิชิต เมืองภูเก็ต ภูเก็ต", "accplace": "แยกกวางตุ้ง", "accdate": "02\/02\/2020" }, "geometry": { "type": "Point", "coordinates": [ 98.380342, 7.859204 ] } },
{ "type": "Feature", "properties": { "field_1": 275, "type": "N", "inj": 1, "dead": 0, "lng": 98.350678, "lat": 7.852716, "address": "ฉลอง เมืองภูเก็ต ภูเก็ต", "accplace": "ปากทางศาลเจ้าตาเอียด", "accdate": "02\/02\/2020" }, "geometry": { "type": "Point", "coordinates": [ 98.350678, 7.852716 ] } },
{ "type": "Feature", "properties": { "field_1": 276, "type": "N", "inj": 1, "dead": 0, "lng": 98.303153, "lat": 7.984992, "address": "เชิงทะเล ถลาง ภูเก็ต", "accplace": "ควนตาหนู", "accdate": "02\/02\/2020" }, "geometry": { "type": "Point", "coordinates": [ 98.303153, 7.984992 ] } },
{ "type": "Feature", "properties": { "field_1": 277, "type": "N", "inj": 1, "dead": 0, "lng": 98.314613, "lat": 8.007412, "address": "เทพกระษัตรี ถลาง ภูเก็ต", "accplace": "บ้านดอน", "accdate": "02\/02\/2020" }, "geometry": { "type": "Point", "coordinates": [ 98.314613, 8.007412 ] } },
{ "type": "Feature", "properties": { "field_1": 278, "type": "N", "inj": 1, "dead": 0, "lng": 98.302231, "lat": 7.903822, "address": "ป่าตอง กะทู้ ภูเก็ต", "accplace": "ซอยบางต้นข้าว", "accdate": "02\/02\/2020" }, "geometry": { "type": "Point", "coordinates": [ 98.302231, 7.903822 ] } },
{ "type": "Feature", "properties": { "field_1": 279, "type": "N", "inj": 1, "dead": 0, "lng": 98.361949, "lat": 7.861082, "address": "วิชิต เมืองภูเก็ต ภูเก็ต", "accplace": "ภูเก็ตวิลล่าแคลิฟอร์เนีย", "accdate": "02\/02\/2020" }, "geometry": { "type": "Point", "coordinates": [ 98.361949, 7.861082 ] } },
{ "type": "Feature", "properties": { "field_1": 280, "type": "N", "inj": 2, "dead": 0, "lng": 98.340641, "lat": 8.059885, "address": "เชิงทะเล ถลาง ภูเก็ต", "accplace": "ก่อนถึงธัญปุระ", "accdate": "02\/02\/2020" }, "geometry": { "type": "Point", "coordinates": [ 98.340641, 8.059885 ] } },
{ "type": "Feature", "properties": { "field_1": 281, "type": "N", "inj": 1, "dead": 0, "lng": 98.387256, "lat": 7.884892, "address": "ตลาดเหนือ เมืองภูเก็ต ภูเก็ต", "accplace": "สี่แยกถนนกระบี่", "accdate": "02\/02\/2020" }, "geometry": { "type": "Point", "coordinates": [ 98.387256, 7.884892 ] } },
{ "type": "Feature", "properties": { "field_1": 282, "type": "N", "inj": 1, "dead": 0, "lng": 98.306658, "lat": 7.76774, "address": "ราไวย์ เมืองภูเก็ต ภูเก็ต", "accplace": "หาดยะนุ้ย", "accdate": "02\/02\/2020" }, "geometry": { "type": "Point", "coordinates": [ 98.306658, 7.76774 ] } },
{ "type": "Feature", "properties": { "field_1": 283, "type": "N", "inj": 1, "dead": 0, "lng": 98.350025, "lat": 7.831447, "address": "ฉลอง เมืองภูเก็ต ภูเก็ต", "accplace": "ม.1 นาบอน", "accdate": "02\/02\/2020" }, "geometry": { "type": "Point", "coordinates": [ 98.350025, 7.831447 ] } },
{ "type": "Feature", "properties": { "field_1": 284, "type": "N", "inj": 1, "dead": 0, "lng": 98.29304, "lat": 8.042744, "address": "เชิงทะเล ถลาง ภูเก็ต", "accplace": "ลายัน", "accdate": "02\/02\/2020" }, "geometry": { "type": "Point", "coordinates": [ 98.29304, 8.042744 ] } },
{ "type": "Feature", "properties": { "field_1": 285, "type": "N", "inj": 1, "dead": 0, "lng": 98.388808, "lat": 7.908483, "address": "รัษฎา เมืองภูเก็ต ภูเก็ต", "accplace": "หน้าโรงน้ำแข็งสามกอง", "accdate": "02\/02\/2020" }, "geometry": { "type": "Point", "coordinates": [ 98.388808, 7.908483 ] } },
{ "type": "Feature", "properties": { "field_1": 286, "type": "N", "inj": 1, "dead": 0, "lng": 98.336501, "lat": 7.84736, "address": "ฉลอง เมืองภูเก็ต ภูเก็ต", "accplace": "ตรงข้ามวัดฉลอง", "accdate": "02\/02\/2020" }, "geometry": { "type": "Point", "coordinates": [ 98.336501, 7.84736 ] } },
{ "type": "Feature", "properties": { "field_1": 287, "type": "N", "inj": 1, "dead": 0, "lng": 98.302472, "lat": 8.011741, "address": "เชิงทะเล ถลาง ภูเก็ต", "accplace": "ปั้มน้ำมันป่าสัก", "accdate": "02\/02\/2020" }, "geometry": { "type": "Point", "coordinates": [ 98.302472, 8.011741 ] } },
{ "type": "Feature", "properties": { "field_1": 288, "type": "N", "inj": 1, "dead": 0, "lng": 98.306405, "lat": 7.77642, "address": "ราไวย์ เมืองภูเก็ต ภูเก็ต", "accplace": "ในหาน", "accdate": "02\/02\/2020" }, "geometry": { "type": "Point", "coordinates": [ 98.306405, 7.77642 ] } },
{ "type": "Feature", "properties": { "field_1": 289, "type": "N", "inj": 1, "dead": 0, "lng": 98.285055, "lat": 7.949592, "address": "กมลา กะทู้ ภูเก็ต", "accplace": "กมลา", "accdate": "02\/02\/2020" }, "geometry": { "type": "Point", "coordinates": [ 98.285055, 7.949592 ] } },
{ "type": "Feature", "properties": { "field_1": 290, "type": "N", "inj": 1, "dead": 0, "lng": 98.344283, "lat": 8.00464, "address": "ศรีสุนทร ถลาง ภูเก็ต", "accplace": "บ้านลิพอน", "accdate": "02\/03\/2020" }, "geometry": { "type": "Point", "coordinates": [ 98.344283, 8.00464 ] } },
{ "type": "Feature", "properties": { "field_1": 291, "type": "N", "inj": 2, "dead": 0, "lng": 98.390805, "lat": 7.906637, "address": "รัษฎา เมืองภูเก็ต ภูเก็ต", "accplace": "หน้า รพ มิชชั้น", "accdate": "02\/03\/2020" }, "geometry": { "type": "Point", "coordinates": [ 98.390805, 7.906637 ] } },
{ "type": "Feature", "properties": { "field_1": 292, "type": "N", "inj": 3, "dead": 0, "lng": 98.37543, "lat": 7.932309, "address": "รัษฎา เมืองภูเก็ต ภูเก็ต", "accplace": "หลังสยามเนรมิตร", "accdate": "02\/03\/2020" }, "geometry": { "type": "Point", "coordinates": [ 98.37543, 7.932309 ] } },
{ "type": "Feature", "properties": { "field_1": 293, "type": "N", "inj": 1, "dead": 0, "lng": 98.383495, "lat": 7.847305, "address": "วิชิต เมืองภูเก็ต ภูเก็ต", "accplace": "บ่อแร่", "accdate": "02\/03\/2020" }, "geometry": { "type": "Point", "coordinates": [ 98.383495, 7.847305 ] } },
{ "type": "Feature", "properties": { "field_1": 294, "type": "N", "inj": 1, "dead": 0, "lng": 98.399059, "lat": 7.884241, "address": "ตลาดใหญ่ เมืองภูเก็ต ภูเก็ต", "accplace": "ตรงข้ามท้ายรถเก่า", "accdate": "02\/03\/2020" }, "geometry": { "type": "Point", "coordinates": [ 98.399059, 7.884241 ] } },
{ "type": "Feature", "properties": { "field_1": 295, "type": "N", "inj": 1, "dead": 0, "lng": 98.3084, "lat": 8.12166, "address": "ไม้ขาว ถลาง ภูเก็ต", "accplace": "ถ.เทพกระษัตรีย์ แยกสนามบินสายเก่า ม.1", "accdate": "02\/03\/2020" }, "geometry": { "type": "Point", "coordinates": [ 98.3084, 8.12166 ] } },
{ "type": "Feature", "properties": { "field_1": 296, "type": "N", "inj": 2, "dead": 0, "lng": 98.287625, "lat": 7.956295, "address": "กมลา กะทู้ ภูเก็ต", "accplace": "ถนนสายกลมลา", "accdate": "02\/03\/2020" }, "geometry": { "type": "Point", "coordinates": [ 98.287625, 7.956295 ] } },
{ "type": "Feature", "properties": { "field_1": 297, "type": "N", "inj": 1, "dead": 0, "lng": 98.376912, "lat": 7.859061, "address": "วิชิต เมืองภูเก็ต ภูเก็ต", "accplace": "วงเวียนเมืองทอง", "accdate": "02\/03\/2020" }, "geometry": { "type": "Point", "coordinates": [ 98.376912, 7.859061 ] } },
{ "type": "Feature", "properties": { "field_1": 298, "type": "N", "inj": 1, "dead": 0, "lng": 98.294694, "lat": 7.980612, "address": "เชิงทะเล ถลาง ภูเก็ต", "accplace": "กุโบว์ บางเทา", "accdate": "02\/03\/2020" }, "geometry": { "type": "Point", "coordinates": [ 98.294694, 7.980612 ] } },
{ "type": "Feature", "properties": { "field_1": 299, "type": "N", "inj": 1, "dead": 0, "lng": 98.366312, "lat": 7.881179, "address": "วิชิต เมืองภูเก็ต ภูเก็ต", "accplace": "สามแยกไฟแดงนาคา", "accdate": "02\/03\/2020" }, "geometry": { "type": "Point", "coordinates": [ 98.366312, 7.881179 ] } },
{ "type": "Feature", "properties": { "field_1": 300, "type": "N", "inj": 1, "dead": 0, "lng": 98.348379, "lat": 7.836706, "address": "ฉลอง เมืองภูเก็ต ภูเก็ต", "accplace": "โค้งวัดใต้", "accdate": "02\/03\/2020" }, "geometry": { "type": "Point", "coordinates": [ 98.348379, 7.836706 ] } },
{ "type": "Feature", "properties": { "field_1": 301, "type": "N", "inj": 1, "dead": 0, "lng": 98.432572, "lat": 7.871027, "address": "รัษฎา เมืองภูเก็ต ภูเก็ต", "accplace": "จุดชมวิวเกาะสิเร่", "accdate": "02\/03\/2020" }, "geometry": { "type": "Point", "coordinates": [ 98.432572, 7.871027 ] } },
{ "type": "Feature", "properties": { "field_1": 302, "type": "N", "inj": 1, "dead": 0, "lng": 98.383689, "lat": 7.907212, "address": "สามกอง เมืองภูเก็ต ภูเก็ต", "accplace": "หมู่บ้านศรีสุชาติ ซอย 3", "accdate": "02\/03\/2020" }, "geometry": { "type": "Point", "coordinates": [ 98.383689, 7.907212 ] } },
{ "type": "Feature", "properties": { "field_1": 303, "type": "N", "inj": 1, "dead": 0, "lng": 98.346419, "lat": 7.852936, "address": "ฉลอง เมืองภูเก็ต ภูเก็ต", "accplace": "ซอยตาเอียด", "accdate": "02\/03\/2020" }, "geometry": { "type": "Point", "coordinates": [ 98.346419, 7.852936 ] } },
{ "type": "Feature", "properties": { "field_1": 304, "type": "N", "inj": 1, "dead": 0, "lng": 98.346424, "lat": 7.852935, "address": "ฉลอง เมืองภูเก็ต ภูเก็ต", "accplace": "หน้าปากซอยตาเอียด", "accdate": "02\/03\/2020" }, "geometry": { "type": "Point", "coordinates": [ 98.346424, 7.852935 ] } },
{ "type": "Feature", "properties": { "field_1": 305, "type": "N", "inj": 1, "dead": 0, "lng": 98.300088, "lat": 8.180964, "address": "ไม้ขาว ถลาง ภูเก็ต", "accplace": "บริเวณท่าฉัตรไชย", "accdate": "02\/03\/2020" }, "geometry": { "type": "Point", "coordinates": [ 98.300088, 8.180964 ] } },
{ "type": "Feature", "properties": { "field_1": 306, "type": "N", "inj": 2, "dead": 0, "lng": 98.328864, "lat": 7.906779, "address": "กะทู้ กะทู้ ภูเก็ต", "accplace": "โค้งโกคาร์ท", "accdate": "02\/03\/2020" }, "geometry": { "type": "Point", "coordinates": [ 98.328864, 7.906779 ] } },
{ "type": "Feature", "properties": { "field_1": 307, "type": "N", "inj": 3, "dead": 0, "lng": 98.399631, "lat": 7.909058, "address": "รัษฎา เมืองภูเก็ต ภูเก็ต", "accplace": "หน้าหมู่บ้านเทพบุรี", "accdate": "02\/03\/2020" }, "geometry": { "type": "Point", "coordinates": [ 98.399631, 7.909058 ] } },
{ "type": "Feature", "properties": { "field_1": 308, "type": "N", "inj": 1, "dead": 0, "lng": 98.38409, "lat": 7.958749, "address": "เกาะแก้ว เมืองภูเก็ต ภูเก็ต", "accplace": "อุโมงบางคู", "accdate": "02\/03\/2020" }, "geometry": { "type": "Point", "coordinates": [ 98.38409, 7.958749 ] } },
{ "type": "Feature", "properties": { "field_1": 309, "type": "N", "inj": 1, "dead": 0, "lng": 98.385427, "lat": 7.958227, "address": "เกาะแก้ว เมืองภูเก็ต ภูเก็ต", "accplace": "หน้าปั๊ม ปตท.เกาะแก้ว", "accdate": "02\/03\/2020" }, "geometry": { "type": "Point", "coordinates": [ 98.385427, 7.958227 ] } },
{ "type": "Feature", "properties": { "field_1": 310, "type": "N", "inj": 1, "dead": 0, "lng": 98.373156, "lat": 7.967123, "address": "เกาะแก้ว เมืองภูเก็ต ภูเก็ต", "accplace": "อิซูซุเกาะแก้ว ถนนเทพกระษัตรี", "accdate": "02\/03\/2020" }, "geometry": { "type": "Point", "coordinates": [ 98.373156, 7.967123 ] } },
{ "type": "Feature", "properties": { "field_1": 311, "type": "N", "inj": 1, "dead": 0, "lng": 98.27881, "lat": 7.975576, "address": "เชิงทะเล ถลาง ภูเก็ต", "accplace": "บริเวณหาดสุรินทร์", "accdate": "02\/03\/2020" }, "geometry": { "type": "Point", "coordinates": [ 98.27881, 7.975576 ] } },
{ "type": "Feature", "properties": { "field_1": 312, "type": "N", "inj": 1, "dead": 0, "lng": 98.323448, "lat": 7.933352, "address": "กะทู้ กะทู้ ภูเก็ต", "accplace": "แถวคุมน้ำกะทู้", "accdate": "02\/03\/2020" }, "geometry": { "type": "Point", "coordinates": [ 98.323448, 7.933352 ] } },
{ "type": "Feature", "properties": { "field_1": 313, "type": "N", "inj": 1, "dead": 0, "lng": 98.352212, "lat": 7.903804, "address": "กะทู้ กะทู้ ภูเก็ต", "accplace": "เก็ตโฮ่", "accdate": "02\/03\/2020" }, "geometry": { "type": "Point", "coordinates": [ 98.352212, 7.903804 ] } },
{ "type": "Feature", "properties": { "field_1": 314, "type": "N", "inj": 1, "dead": 0, "lng": 98.331681, "lat": 7.79568, "address": "ราไวย์ เมืองภูเก็ต ภูเก็ต", "accplace": "ธนาคารไทยพาณิชย์", "accdate": "02\/03\/2020" }, "geometry": { "type": "Point", "coordinates": [ 98.331681, 7.79568 ] } },
{ "type": "Feature", "properties": { "field_1": 315, "type": "N", "inj": 1, "dead": 0, "lng": 98.279321, "lat": 7.922796, "address": "กมลา กะทู้ ภูเก็ต", "accplace": "หน้าโรงเรียนกะหลิม", "accdate": "02\/03\/2020" }, "geometry": { "type": "Point", "coordinates": [ 98.279321, 7.922796 ] } },
{ "type": "Feature", "properties": { "field_1": 316, "type": "N", "inj": 1, "dead": 0, "lng": 98.385187, "lat": 7.894923, "address": "ตลาดใหญ่ เมืองภูเก็ต ภูเก็ต", "accplace": "ถนนเยาวราช", "accdate": "02\/03\/2020" }, "geometry": { "type": "Point", "coordinates": [ 98.385187, 7.894923 ] } },
{ "type": "Feature", "properties": { "field_1": 317, "type": "N", "inj": 1, "dead": 0, "lng": 98.342343, "lat": 7.823815, "address": "ฉลอง เมืองภูเก็ต ภูเก็ต", "accplace": "แถวห้าแยกฉลอง", "accdate": "02\/03\/2020" }, "geometry": { "type": "Point", "coordinates": [ 98.342343, 7.823815 ] } },
{ "type": "Feature", "properties": { "field_1": 319, "type": "N", "inj": 1, "dead": 0, "lng": 98.373685, "lat": 7.925275, "address": "รัษฎา เมืองภูเก็ต ภูเก็ต", "accplace": "บริเวณหน้าหมู่บ้านวราณีย์บายพาส", "accdate": "02\/03\/2020" }, "geometry": { "type": "Point", "coordinates": [ 98.373685, 7.925275 ] } },
{ "type": "Feature", "properties": { "field_1": 320, "type": "N", "inj": 2, "dead": 0, "lng": 98.344466, "lat": 7.911918, "address": "กะทู้ กะทู้ ภูเก็ต", "accplace": "กะทู้ ซ.2", "accdate": "02\/03\/2020" }, "geometry": { "type": "Point", "coordinates": [ 98.344466, 7.911918 ] } },
{ "type": "Feature", "properties": { "field_1": 321, "type": "N", "inj": 1, "dead": 0, "lng": 98.294555, "lat": 7.882273, "address": "ป่าตอง กะทู้ ภูเก็ต", "accplace": "ถนนพระเมตตา", "accdate": "02\/03\/2020" }, "geometry": { "type": "Point", "coordinates": [ 98.294555, 7.882273 ] } },
{ "type": "Feature", "properties": { "field_1": 322, "type": "N", "inj": 1, "dead": 0, "lng": 98.301346, "lat": 7.828797, "address": "กะรน เมืองภูเก็ต ภูเก็ต", "accplace": "ทางขึ้นเขากะรน", "accdate": "02\/03\/2020" }, "geometry": { "type": "Point", "coordinates": [ 98.301346, 7.828797 ] } },
{ "type": "Feature", "properties": { "field_1": 323, "type": "N", "inj": 1, "dead": 0, "lng": 98.34052, "lat": 7.820551, "address": "ราไวย์ เมืองภูเก็ต ภูเก็ต", "accplace": "บริเวณหน้าซุปเปอร์ชิฟราไวย์", "accdate": "02\/03\/2020" }, "geometry": { "type": "Point", "coordinates": [ 98.34052, 7.820551 ] } },
{ "type": "Feature", "properties": { "field_1": 324, "type": "N", "inj": 1, "dead": 0, "lng": 98.394921, "lat": 7.91781, "address": "รัษฎา เมืองภูเก็ต ภูเก็ต", "accplace": "แถวหน้า บขส ใหม่", "accdate": "02\/03\/2020" }, "geometry": { "type": "Point", "coordinates": [ 98.394921, 7.91781 ] } },
{ "type": "Feature", "properties": { "field_1": 325, "type": "N", "inj": 1, "dead": 0, "lng": 98.388857, "lat": 7.954252, "address": "เกาะแก้ว เมืองภูเก็ต ภูเก็ต", "accplace": "เกาะแก้ว", "accdate": "02\/04\/2020" }, "geometry": { "type": "Point", "coordinates": [ 98.388857, 7.954252 ] } },
{ "type": "Feature", "properties": { "field_1": 326, "type": "N", "inj": 1, "dead": 0, "lng": 98.383858, "lat": 7.870987, "address": "ตลาดเหนือ เมืองภูเก็ต ภูเก็ต", "accplace": "บริเวณถนนศักดิเดช ซอย1", "accdate": "02\/04\/2020" }, "geometry": { "type": "Point", "coordinates": [ 98.383858, 7.870987 ] } },
{ "type": "Feature", "properties": { "field_1": 327, "type": "N", "inj": 1, "dead": 0, "lng": 98.341129, "lat": 7.824065, "address": "ฉลอง เมืองภูเก็ต ภูเก็ต", "accplace": "ปากทางเข้ารพ.ฉลอง", "accdate": "02\/04\/2020" }, "geometry": { "type": "Point", "coordinates": [ 98.341129, 7.824065 ] } },
{ "type": "Feature", "properties": { "field_1": 328, "type": "N", "inj": 1, "dead": 0, "lng": 98.344239, "lat": 8.004698, "address": "เทพกระษัตรี ถลาง ภูเก็ต", "accplace": "บ้านพอน", "accdate": "02\/04\/2020" }, "geometry": { "type": "Point", "coordinates": [ 98.344239, 8.004698 ] } },
{ "type": "Feature", "properties": { "field_1": 329, "type": "N", "inj": 1, "dead": 0, "lng": 98.396112, "lat": 7.891286, "address": "ตลาดใหญ่ เมืองภูเก็ต ภูเก็ต", "accplace": "หน้าศาลจังหวัด", "accdate": "02\/04\/2020" }, "geometry": { "type": "Point", "coordinates": [ 98.396112, 7.891286 ] } },
{ "type": "Feature", "properties": { "field_1": 330, "type": "N", "inj": 1, "dead": 0, "lng": 98.373659, "lat": 7.86792, "address": "วิชิต เมืองภูเก็ต ภูเก็ต", "accplace": "ในหมู่บ้านวิลล่าดาวรุ่ง", "accdate": "02\/04\/2020" }, "geometry": { "type": "Point", "coordinates": [ 98.373659, 7.86792 ] } },
{ "type": "Feature", "properties": { "field_1": 331, "type": "N", "inj": 1, "dead": 0, "lng": 98.393767252564004, "lat": 7.8742630267338001, "address": "ตลาดใหญ่ เมืองภูเก็ต ภูเก็ต", "accplace": "หน้าโรงเรียนบางเหนียว", "accdate": "02\/04\/2020" }, "geometry": { "type": "Point", "coordinates": [ 98.393767252564004, 7.8742630267338 ] } },
{ "type": "Feature", "properties": { "field_1": 332, "type": "N", "inj": 1, "dead": 0, "lng": 98.339602, "lat": 7.975047, "address": "ศรีสุนทร ถลาง ภูเก็ต", "accplace": "หน้าวัดม่าหนิก", "accdate": "02\/04\/2020" }, "geometry": { "type": "Point", "coordinates": [ 98.339602, 7.975047 ] } },
{ "type": "Feature", "properties": { "field_1": 333, "type": "N", "inj": 1, "dead": 0, "lng": 98.30249, "lat": 7.897238, "address": "ป่าตอง กะทู้ ภูเก็ต", "accplace": "หน้าโรงพักป่าตอง", "accdate": "02\/05\/2020" }, "geometry": { "type": "Point", "coordinates": [ 98.30249, 7.897238 ] } },
{ "type": "Feature", "properties": { "field_1": 334, "type": "N", "inj": 1, "dead": 0, "lng": 98.393686, "lat": 7.927255, "address": "เกาะแก้ว เมืองภูเก็ต ภูเก็ต", "accplace": "ซอยลูกแก้ว", "accdate": "02\/05\/2020" }, "geometry": { "type": "Point", "coordinates": [ 98.393686, 7.927255 ] } },
{ "type": "Feature", "properties": { "field_1": 335, "type": "N", "inj": 1, "dead": 0, "lng": 98.399812, "lat": 7.909349, "address": "รัษฎา เมืองภูเก็ต ภูเก็ต", "accplace": "หน้าเทศบาลรัษฎา", "accdate": "02\/05\/2020" }, "geometry": { "type": "Point", "coordinates": [ 98.399812, 7.909349 ] } },
{ "type": "Feature", "properties": { "field_1": 336, "type": "N", "inj": 1, "dead": 0, "lng": 98.400532, "lat": 7.831841, "address": "วิชิต เมืองภูเก็ต ภูเก็ต", "accplace": "แถวอ่ามะขามหน้าโรงแรมเดอะคาวพลาซ่า", "accdate": "02\/05\/2020" }, "geometry": { "type": "Point", "coordinates": [ 98.400532, 7.831841 ] } },
{ "type": "Feature", "properties": { "field_1": 337, "type": "N", "inj": 1, "dead": 0, "lng": 98.302099, "lat": 7.896567, "address": "ป่าตอง กะทู้ ภูเก็ต", "accplace": "ป่าตอง", "accdate": "02\/05\/2020" }, "geometry": { "type": "Point", "coordinates": [ 98.302099, 7.896567 ] } },
{ "type": "Feature", "properties": { "field_1": 338, "type": "N", "inj": 1, "dead": 0, "lng": 98.378327451646001, "lat": 7.9287448683542996, "address": "รัษฎา เมืองภูเก็ต ภูเก็ต", "accplace": "หลังสยามเนรนิต", "accdate": "02\/05\/2020" }, "geometry": { "type": "Point", "coordinates": [ 98.378327451646001, 7.9287448683543 ] } },
{ "type": "Feature", "properties": { "field_1": 339, "type": "N", "inj": 1, "dead": 0, "lng": 98.39673, "lat": 7.92421, "address": "รัษฎา เมืองภูเก็ต ภูเก็ต", "accplace": "ทางเข้าหมู่บ้านเกียรติสินธุ์", "accdate": "02\/05\/2020" },