{
"type": "FeatureCollection",
"name": "acc_2021_N",
"crs": { "type": "name", "properties": { "name": "urn:ogc:def:crs:OGC:1.3:CRS84" } },
"features": [
{ "type": "Feature", "properties": { "Unnamed: 0": 0, "accdate": "01\/01\/2021", "address": "หล่อโรง", "accplace": "ขับ จยย ล้มเอง", "isdead": "N", "lat": 7.88203, "lng": 98.379061, "dead": "ไม่มีผู้เสียชีวิต", "inj": "มีผู้บาดเจ็บ" }, "geometry": { "type": "Point", "coordinates": [ 98.379061, 7.88203 ] } },
{ "type": "Feature", "properties": { "Unnamed: 0": 1, "accdate": "01\/01\/2021", "address": "ปากซอยก่อไผ่", "accplace": "ขัับ จยย ชน เก๋ง", "isdead": "N", "lat": 7.870697, "lng": 98.394095, "dead": "ไม่มีผู้เสียชีวิต", "inj": "มีผู้บาดเจ็บ" }, "geometry": { "type": "Point", "coordinates": [ 98.394095, 7.870697 ] } },
{ "type": "Feature", "properties": { "Unnamed: 0": 2, "accdate": "01\/01\/2021", "address": "แถวตลาดนัดฉำฉา", "accplace": "ขับ จยย ล้มเอง", "isdead": "N", "lat": 7.883712, "lng": 98.381203, "dead": "ไม่มีผู้เสียชีวิต", "inj": "มีผู้บาดเจ็บ" }, "geometry": { "type": "Point", "coordinates": [ 98.381203, 7.883712 ] } },
{ "type": "Feature", "properties": { "Unnamed: 0": 3, "accdate": "01\/01\/2021", "address": "หน้าตลาดริมป่ามาร์เก็ต", "accplace": "ขับ จยย. ล้มเอง", "isdead": "N", "lat": 7.879553, "lng": 98.382844, "dead": "ไม่มีผู้เสียชีวิต", "inj": "มีผู้บาดเจ็บ" }, "geometry": { "type": "Point", "coordinates": [ 98.382844, 7.879553 ] } },
{ "type": "Feature", "properties": { "Unnamed: 0": 4, "accdate": "01\/01\/2021", "address": "พะเนียง ซอย4", "accplace": "Pt.ขับ จยย.ล้มเอง เนื่องจาก แมวตัดหน้า", "isdead": "N", "lat": 7.914077, "lng": 98.375832, "dead": "ไม่มีผู้เสียชีวิต", "inj": "มีผู้บาดเจ็บ" }, "geometry": { "type": "Point", "coordinates": [ 98.375832, 7.914077 ] } },
{ "type": "Feature", "properties": { "Unnamed: 0": 5, "accdate": "01\/01\/2021", "address": "ก่อนถึงจุดชมวิวเขาขาด", "accplace": "ขับ จยย.ล้มเอง", "isdead": "N", "lat": 7.825126, "lng": 98.381489, "dead": "ไม่มีผู้เสียชีวิต", "inj": "มีผู้บาดเจ็บ" }, "geometry": { "type": "Point", "coordinates": [ 98.381489, 7.825126 ] } },
{ "type": "Feature", "properties": { "Unnamed: 0": 6, "accdate": "01\/01\/2021", "address": "ก่อนถึงแยกหยี่เต้ง", "accplace": "ขับ จยย. ล้มเอง", "isdead": "N", "lat": 7.87941, "lng": 98.381551, "dead": "ไม่มีผู้เสียชีวิต", "inj": "มีผู้บาดเจ็บ" }, "geometry": { "type": "Point", "coordinates": [ 98.381551, 7.87941 ] } },
{ "type": "Feature", "properties": { "Unnamed: 0": 7, "accdate": "02\/01\/2021", "address": "หน้ารพ.อบจ.ภูเก็ต", "accplace": "ขับ จยย. ชน จยย.", "isdead": "N", "lat": 7.881033, "lng": 98.404535, "dead": "ไม่มีผู้เสียชีวิต", "inj": "มีผู้บาดเจ็บ" }, "geometry": { "type": "Point", "coordinates": [ 98.404535, 7.881033 ] } },
{ "type": "Feature", "properties": { "Unnamed: 0": 8, "accdate": "02\/01\/2021", "address": "หน้าปั๊ม ปตท.บายพาส", "accplace": "ขับ จยย ล้มเอง", "isdead": "N", "lat": 7.910163, "lng": 98.391769, "dead": "ไม่มีผู้เสียชีวิต", "inj": "มีผู้บาดเจ็บ" }, "geometry": { "type": "Point", "coordinates": [ 98.391769, 7.910163 ] } },
{ "type": "Feature", "properties": { "Unnamed: 0": 9, "accdate": "01\/01\/2021", "address": "โค้งวัดกะรน", "accplace": "เสียหลัหล้ม", "isdead": "N", "lat": 7.84759, "lng": 98.297863, "dead": "ไม่มีผู้เสียชีวิต", "inj": "มีผู้บาดเจ็บ" }, "geometry": { "type": "Point", "coordinates": [ 98.297863, 7.84759 ] } },
{ "type": "Feature", "properties": { "Unnamed: 0": 10, "accdate": "01\/01\/2021", "address": "หาดราไวย์", "accplace": "เสียหลักล้ม", "isdead": "N", "lat": 7.772036, "lng": 98.321644, "dead": "ไม่มีผู้เสียชีวิต", "inj": "มีผู้บาดเจ็บ" }, "geometry": { "type": "Point", "coordinates": [ 98.321644, 7.772036 ] } },
{ "type": "Feature", "properties": { "Unnamed: 0": 11, "accdate": "01\/01\/2021", "address": "สนามฟุตบอลโบทพล่าซ่า สามกอง", "accplace": "มองไม่เห็นเกาะกลาง  เสียหลักล้ม ", "isdead": "N", "lat": 7.925264, "lng": 98.377749, "dead": "ไม่มีผู้เสียชีวิต", "inj": "มีผู้บาดเจ็บ" }, "geometry": { "type": "Point", "coordinates": [ 98.377749, 7.925264 ] } },
{ "type": "Feature", "properties": { "Unnamed: 0": 12, "accdate": "03\/01\/2021", "address": "สี่แยกบางเหนียว", "accplace": "จยย. ล้มเอง", "isdead": "N", "lat": 7.876875, "lng": 98.393548, "dead": "ไม่มีผู้เสียชีวิต", "inj": "มีผู้บาดเจ็บ" }, "geometry": { "type": "Point", "coordinates": [ 98.393548, 7.876875 ] } },
{ "type": "Feature", "properties": { "Unnamed: 0": 13, "accdate": "03\/01\/2021", "address": "หน้าบิ๊กซีใหญ่", "accplace": "ขับ จยย. ล้มเอง", "isdead": "N", "lat": 7.89598, "lng": 98.367614, "dead": "ไม่มีผู้เสียชีวิต", "inj": "มีผู้บาดเจ็บ" }, "geometry": { "type": "Point", "coordinates": [ 98.367614, 7.89598 ] } },
{ "type": "Feature", "properties": { "Unnamed: 0": 14, "accdate": "04\/01\/2021", "address": "สี่แยกร้านอาหารลกเที้ยน", "accplace": "ขับ จยย. ล้มเอง", "isdead": "N", "lat": 7.88614, "lng": 98.387657, "dead": "ไม่มีผู้เสียชีวิต", "inj": "มีผู้บาดเจ็บ" }, "geometry": { "type": "Point", "coordinates": [ 98.387657, 7.88614 ] } },
{ "type": "Feature", "properties": { "Unnamed: 0": 15, "accdate": "04\/01\/2021", "address": "ไฟแดงเกาะแก้ว ขาแก้ว", "accplace": "ขับ จยย ชน กระบะ", "isdead": "N", "lat": 7.962394, "lng": 98.379322, "dead": "ไม่มีผู้เสียชีวิต", "inj": "มีผู้บาดเจ็บ" }, "geometry": { "type": "Point", "coordinates": [ 98.379322, 7.962394 ] } },
{ "type": "Feature", "properties": { "Unnamed: 0": 16, "accdate": "04\/01\/2021", "address": "เขารัง", "accplace": "ขับ จยย ล้มเอง", "isdead": "N", "lat": 7.892565, "lng": 98.38124, "dead": "ไม่มีผู้เสียชีวิต", "inj": "มีผู้บาดเจ็บ" }, "geometry": { "type": "Point", "coordinates": [ 98.38124, 7.892565 ] } },
{ "type": "Feature", "properties": { "Unnamed: 0": 17, "accdate": "04\/01\/2021", "address": "ซอยข้างวชิระ", "accplace": "จยย.ล้มเอง", "isdead": "N", "lat": 7.896885, "lng": 98.383907, "dead": "ไม่มีผู้เสียชีวิต", "inj": "มีผู้บาดเจ็บ" }, "geometry": { "type": "Point", "coordinates": [ 98.383907, 7.896885 ] } },
{ "type": "Feature", "properties": { "Unnamed: 0": 18, "accdate": "04\/01\/2021", "address": "ซอยข้างวัดฉลอง", "accplace": "จยย.เสียหลักล้ม", "isdead": "N", "lat": 7.847391, "lng": 98.336438, "dead": "ไม่มีผู้เสียชีวิต", "inj": "มีผู้บาดเจ็บ" }, "geometry": { "type": "Point", "coordinates": [ 98.336438, 7.847391 ] } },
{ "type": "Feature", "properties": { "Unnamed: 0": 19, "accdate": "03\/01\/2021", "address": "ถนนขวาง", "accplace": "ขณะกำลังจะออกตัว ได้เกิดเสียหลักล้มเอง", "isdead": "N", "lat": 7.858218, "lng": 98.35714, "dead": "ไม่มีผู้เสียชีวิต", "inj": "มีผู้บาดเจ็บ" }, "geometry": { "type": "Point", "coordinates": [ 98.35714, 7.858218 ] } },
{ "type": "Feature", "properties": { "Unnamed: 0": 20, "accdate": "04\/01\/2021", "address": "ถนนภายใน หมู่บ้านวิลล่า 3", "accplace": "รถจักรยานยนต์ อุบัติเหตุเฉี่ยวชนกับรถเก๋ง", "isdead": "N", "lat": 7.857901, "lng": 98.364606, "dead": "ไม่มีผู้เสียชีวิต", "inj": "มีผู้บาดเจ็บ" }, "geometry": { "type": "Point", "coordinates": [ 98.364606, 7.857901 ] } },
{ "type": "Feature", "properties": { "Unnamed: 0": 21, "accdate": "04\/01\/2021", "address": "ศรีสุทัศน์8", "accplace": "ขับ จยย ชน กระบะ", "isdead": "N", "lat": 7.884674, "lng": 98.40661, "dead": "ไม่มีผู้เสียชีวิต", "inj": "มีผู้บาดเจ็บ" }, "geometry": { "type": "Point", "coordinates": [ 98.40661, 7.884674 ] } },
{ "type": "Feature", "properties": { "Unnamed: 0": 22, "accdate": "05\/01\/2021", "address": "บ้านเลขที่69\/272 หมู่บ้านวิลล่า3", "accplace": "ขณะที่แม่กำลังจะขับรถ คนเจ็บนั่งซ้อนท้ายรถจยย. ตกจากรถ", "isdead": "N", "lat": 7.857977, "lng": 98.364577, "dead": "ไม่มีผู้เสียชีวิต", "inj": "มีผู้บาดเจ็บ" }, "geometry": { "type": "Point", "coordinates": [ 98.364577, 7.857977 ] } },
{ "type": "Feature", "properties": { "Unnamed: 0": 23, "accdate": "03\/01\/2021", "address": "หน้าหาดราไวย์", "accplace": "จยย+รถยนต์", "isdead": "N", "lat": 7.772044, "lng": 98.321655, "dead": "ไม่มีผู้เสียชีวิต", "inj": "มีผู้บาดเจ็บ" }, "geometry": { "type": "Point", "coordinates": [ 98.321655, 7.772044 ] } },
{ "type": "Feature", "properties": { "Unnamed: 0": 24, "accdate": "04\/01\/2021", "address": "หน้าปาล์มบีช ใสยวน", "accplace": "จยย+รถยนต์", "isdead": "N", "lat": 7.770706, "lng": 98.318169, "dead": "ไม่มีผู้เสียชีวิต", "inj": "มีผู้บาดเจ็บ" }, "geometry": { "type": "Point", "coordinates": [ 98.318169, 7.770706 ] } },
{ "type": "Feature", "properties": { "Unnamed: 0": 25, "accdate": "05\/01\/2021", "address": "ถนนแม่หลวน", "accplace": "เสียหลักล้ม", "isdead": "N", "lat": 7.888031, "lng": 98.380022, "dead": "ไม่มีผู้เสียชีวิต", "inj": "มีผู้บาดเจ็บ" }, "geometry": { "type": "Point", "coordinates": [ 98.380022, 7.888031 ] } },
{ "type": "Feature", "properties": { "Unnamed: 0": 26, "accdate": "01\/01\/2021", "address": "ซอยกิ่งแก้ว", "accplace": "ขับ จยย.+จยย.", "isdead": "N", "lat": 7.902145, "lng": 98.415084, "dead": "ไม่มีผู้เสียชีวิต", "inj": "มีผู้บาดเจ็บ" }, "geometry": { "type": "Point", "coordinates": [ 98.415084, 7.902145 ] } },
{ "type": "Feature", "properties": { "Unnamed: 0": 27, "accdate": "03\/01\/2021", "address": "ถนนภูเก็ต", "accplace": "ขับ จยย.ล้มเอง", "isdead": "N", "lat": 7.8804230470259, "lng": 98.392041251063006, "dead": "ไม่มีผู้เสียชีวิต", "inj": "มีผู้บาดเจ็บ" }, "geometry": { "type": "Point", "coordinates": [ 98.392041251063006, 7.8804230470259 ] } },
{ "type": "Feature", "properties": { "Unnamed: 0": 28, "accdate": "04\/01\/2021", "address": "หน้าหมู่บ้านฮกฮวด", "accplace": "ขับ จยย ชน กะบะ", "isdead": "N", "lat": 7.885172, "lng": 98.387544, "dead": "ไม่มีผู้เสียชีวิต", "inj": "มีผู้บาดเจ็บ" }, "geometry": { "type": "Point", "coordinates": [ 98.387544, 7.885172 ] } },
{ "type": "Feature", "properties": { "Unnamed: 0": 29, "accdate": "06\/01\/2021", "address": "ไฟแดงหน้า รพ วชิระ", "accplace": "ขับ จยย ล้มเอง", "isdead": "N", "lat": 7.896885, "lng": 98.383898, "dead": "ไม่มีผู้เสียชีวิต", "inj": "มีผู้บาดเจ็บ" }, "geometry": { "type": "Point", "coordinates": [ 98.383898, 7.896885 ] } },
{ "type": "Feature", "properties": { "Unnamed: 0": 30, "accdate": "06\/01\/2021", "address": "กล้วยน้ำหว้า (สามกอง)", "accplace": "ขับ จยย.+จยย. ", "isdead": "N", "lat": 7.900079, "lng": 98.38218, "dead": "ไม่มีผู้เสียชีวิต", "inj": "มีผู้บาดเจ็บ" }, "geometry": { "type": "Point", "coordinates": [ 98.38218, 7.900079 ] } },
{ "type": "Feature", "properties": { "Unnamed: 0": 31, "accdate": "06\/01\/2021", "address": "หน้าร้านกล้วยน้ำว้า", "accplace": "ขับ จยย.ชน จยย.", "isdead": "N", "lat": 7.870311, "lng": 98.395235, "dead": "ไม่มีผู้เสียชีวิต", "inj": "มีผู้บาดเจ็บ" }, "geometry": { "type": "Point", "coordinates": [ 98.395235, 7.870311 ] } },
{ "type": "Feature", "properties": { "Unnamed: 0": 32, "accdate": "05\/01\/2021", "address": "แมคโครราไวย์", "accplace": "จยย.ล้มเอง", "isdead": "N", "lat": 7.815372, "lng": 98.339236, "dead": "ไม่มีผู้เสียชีวิต", "inj": "มีผู้บาดเจ็บ" }, "geometry": { "type": "Point", "coordinates": [ 98.339236, 7.815372 ] } },
{ "type": "Feature", "properties": { "Unnamed: 0": 33, "accdate": "06\/01\/2021", "address": "แยกเซนทรัลภูเก็ต", "accplace": "สุนัขตัดหน้ารถ จยย.ทำให้เสียหลักล้ม", "isdead": "N", "lat": 7.851406, "lng": 98.354116, "dead": "ไม่มีผู้เสียชีวิต", "inj": "มีผู้บาดเจ็บ" }, "geometry": { "type": "Point", "coordinates": [ 98.354116, 7.851406 ] } },
{ "type": "Feature", "properties": { "Unnamed: 0": 34, "accdate": "06\/01\/2021", "address": "หน้ากู้ชีพวิชิต", "accplace": "จยย.ล้มเอง", "isdead": "N", "lat": 7.881741, "lng": 98.366792, "dead": "ไม่มีผู้เสียชีวิต", "inj": "มีผู้บาดเจ็บ" }, "geometry": { "type": "Point", "coordinates": [ 98.366792, 7.881741 ] } },
{ "type": "Feature", "properties": { "Unnamed: 0": 35, "accdate": "07\/01\/2021", "address": "หน้าซอยไพศาล1", "accplace": "จยย. ล้มเอง", "isdead": "N", "lat": 7.847348, "lng": 98.382342, "dead": "ไม่มีผู้เสียชีวิต", "inj": "มีผู้บาดเจ็บ" }, "geometry": { "type": "Point", "coordinates": [ 98.382342, 7.847348 ] } },
{ "type": "Feature", "properties": { "Unnamed: 0": 36, "accdate": "05\/01\/2021", "address": "แยกตลาดเกษตร", "accplace": "MC+Car", "isdead": "N", "lat": 7.877503, "lng": 98.395467, "dead": "ไม่มีผู้เสียชีวิต", "inj": "มีผู้บาดเจ็บ" }, "geometry": { "type": "Point", "coordinates": [ 98.395467, 7.877503 ] } },
{ "type": "Feature", "properties": { "Unnamed: 0": 37, "accdate": "06\/01\/2021", "address": "สำนักสงฆ์เขารัง", "accplace": "ขาโดนท่อรถ", "isdead": "N", "lat": 7.893872, "lng": 98.381892, "dead": "ไม่มีผู้เสียชีวิต", "inj": "มีผู้บาดเจ็บ" }, "geometry": { "type": "Point", "coordinates": [ 98.381892, 7.893872 ] } },
{ "type": "Feature", "properties": { "Unnamed: 0": 38, "accdate": "07\/01\/2021", "address": "แยกเซ็นทรัล", "accplace": "จยย ล้มเอง ", "isdead": "N", "lat": 7.885942, "lng": 98.393149, "dead": "ไม่มีผู้เสียชีวิต", "inj": "มีผู้บาดเจ็บ" }, "geometry": { "type": "Point", "coordinates": [ 98.393149, 7.885942 ] } },
{ "type": "Feature", "properties": { "Unnamed: 0": 39, "accdate": "06\/01\/2021", "address": "ป่าหล่าย", "accplace": "ขับจยย.ล้มเอง", "isdead": "N", "lat": 7.842838, "lng": 98.356673, "dead": "ไม่มีผู้เสียชีวิต", "inj": "มีผู้บาดเจ็บ" }, "geometry": { "type": "Point", "coordinates": [ 98.356673, 7.842838 ] } },
{ "type": "Feature", "properties": { "Unnamed: 0": 40, "accdate": "07\/01\/2021", "address": "ตรงข้ามวิลล่า3", "accplace": "จยย+จยย", "isdead": "N", "lat": 7.867938, "lng": 98.373672, "dead": "ไม่มีผู้เสียชีวิต", "inj": "มีผู้บาดเจ็บ" }, "geometry": { "type": "Point", "coordinates": [ 98.373672, 7.867938 ] } },
{ "type": "Feature", "properties": { "Unnamed: 0": 41, "accdate": "05\/01\/2021", "address": "หน้าห้างโลตัสวิชิต", "accplace": "จยย.เสียหลักล้มเอง", "isdead": "N", "lat": 7.859264, "lng": 98.365235, "dead": "ไม่มีผู้เสียชีวิต", "inj": "มีผู้บาดเจ็บ" }, "geometry": { "type": "Point", "coordinates": [ 98.365235, 7.859264 ] } },
{ "type": "Feature", "properties": { "Unnamed: 0": 42, "accdate": "04\/01\/2021", "address": "แถวบ้านวานิช", "accplace": "ขับ จยย ชน เก๋ง ", "isdead": "N", "lat": 7.881983, "lng": 98.413543, "dead": "ไม่มีผู้เสียชีวิต", "inj": "มีผู้บาดเจ็บ" }, "geometry": { "type": "Point", "coordinates": [ 98.413543, 7.881983 ] } },
{ "type": "Feature", "properties": { "Unnamed: 0": 43, "accdate": "08\/01\/2021", "address": "ธนาคารกรุงไทย", "accplace": "ขับ จยย.+จยย.", "isdead": "N", "lat": 7.82642, "lng": 98.343181, "dead": "ไม่มีผู้เสียชีวิต", "inj": "มีผู้บาดเจ็บ" }, "geometry": { "type": "Point", "coordinates": [ 98.343181, 7.82642 ] } },
{ "type": "Feature", "properties": { "Unnamed: 0": 44, "accdate": "05\/01\/2021", "address": "ถนนกระ", "accplace": "จยย ชน กระบะ", "isdead": "N", "lat": 7.873145, "lng": 98.390839, "dead": "ไม่มีผู้เสียชีวิต", "inj": "มีผู้บาดเจ็บ" }, "geometry": { "type": "Point", "coordinates": [ 98.390839, 7.873145 ] } },
{ "type": "Feature", "properties": { "Unnamed: 0": 45, "accdate": "08\/01\/2021", "address": "หน้าหาดราไวย์", "accplace": "ขับ จยย. ล้มเอง", "isdead": "N", "lat": 7.772052, "lng": 98.321663, "dead": "ไม่มีผู้เสียชีวิต", "inj": "มีผู้บาดเจ็บ" }, "geometry": { "type": "Point", "coordinates": [ 98.321663, 7.772052 ] } },
{ "type": "Feature", "properties": { "Unnamed: 0": 46, "accdate": "08\/01\/2021", "address": "ทางลงอุโมงขาเข้าเมืองก่อนถึงแยกโลตัส", "accplace": "ขับ จยย. ล้มเอง", "isdead": "N", "lat": 7.905679, "lng": 98.367743, "dead": "ไม่มีผู้เสียชีวิต", "inj": "มีผู้บาดเจ็บ" }, "geometry": { "type": "Point", "coordinates": [ 98.367743, 7.905679 ] } },
{ "type": "Feature", "properties": { "Unnamed: 0": 47, "accdate": "08\/01\/2021", "address": "พูนผล", "accplace": "จยย ชน จยย.ไม่ทราบทะเบียน", "isdead": "N", "lat": 7.877485, "lng": 98.387153, "dead": "ไม่มีผู้เสียชีวิต", "inj": "มีผู้บาดเจ็บ" }, "geometry": { "type": "Point", "coordinates": [ 98.387153, 7.877485 ] } },
{ "type": "Feature", "properties": { "Unnamed: 0": 48, "accdate": "02\/01\/2021", "address": "หมู่บ้านอิรวดี (บายพาส)", "accplace": "เสียหลักล้มเอง", "isdead": "N", "lat": 7.904357, "lng": 98.41535, "dead": "ไม่มีผู้เสียชีวิต", "inj": "มีผู้บาดเจ็บ" }, "geometry": { "type": "Point", "coordinates": [ 98.41535, 7.904357 ] } },
{ "type": "Feature", "properties": { "Unnamed: 0": 49, "accdate": "08\/01\/2021", "address": "ซอยไปหาดในหาน", "accplace": "จยย.ล้มเอง คนขับขี่", "isdead": "N", "lat": 7.776311, "lng": 98.306473, "dead": "ไม่มีผู้เสียชีวิต", "inj": "มีผู้บาดเจ็บ" }, "geometry": { "type": "Point", "coordinates": [ 98.306473, 7.776311 ] } },
{ "type": "Feature", "properties": { "Unnamed: 0": 50, "accdate": "08\/01\/2021", "address": "เกาะสิเหร่", "accplace": "ขับจยย.ชนสุนัข", "isdead": "N", "lat": 7.888222, "lng": 98.428842, "dead": "ไม่มีผู้เสียชีวิต", "inj": "มีผู้บาดเจ็บ" }, "geometry": { "type": "Point", "coordinates": [ 98.428842, 7.888222 ] } },
{ "type": "Feature", "properties": { "Unnamed: 0": 51, "accdate": "09\/01\/2021", "address": "ซอยธนิต", "accplace": "จยย. ล้มเอง", "isdead": "N", "lat": 7.863932, "lng": 98.382524, "dead": "ไม่มีผู้เสียชีวิต", "inj": "มีผู้บาดเจ็บ" }, "geometry": { "type": "Point", "coordinates": [ 98.382524, 7.863932 ] } },
{ "type": "Feature", "properties": { "Unnamed: 0": 52, "accdate": "09\/01\/2021", "address": "แถวสวนหลวง", "accplace": "เบรก ลื่น เสียหลักล้ม", "isdead": "N", "lat": 7.873634, "lng": 98.36606, "dead": "ไม่มีผู้เสียชีวิต", "inj": "มีผู้บาดเจ็บ" }, "geometry": { "type": "Point", "coordinates": [ 98.36606, 7.873634 ] } },
{ "type": "Feature", "properties": { "Unnamed: 0": 53, "accdate": "10\/01\/2021", "address": "ใสยวน", "accplace": "สะดุดก้อนหิน เสียหลักล้ม ", "isdead": "N", "lat": 7.800311, "lng": 98.328569, "dead": "ไม่มีผู้เสียชีวิต", "inj": "มีผู้บาดเจ็บ" }, "geometry": { "type": "Point", "coordinates": [ 98.328569, 7.800311 ] } },
{ "type": "Feature", "properties": { "Unnamed: 0": 54, "accdate": "05\/01\/2021", "address": "เเยกนาคา", "accplace": "ขับ จยย.ชักเกร็งเเล้ว ล้มเอง", "isdead": "N", "lat": 7.879715, "lng": 98.366251, "dead": "ไม่มีผู้เสียชีวิต", "inj": "มีผู้บาดเจ็บ" }, "geometry": { "type": "Point", "coordinates": [ 98.366251, 7.879715 ] } },
{ "type": "Feature", "properties": { "Unnamed: 0": 55, "accdate": "09\/01\/2021", "address": "อ่าวมะขาม", "accplace": "ขับ จยย ชน รถบรรทุก", "isdead": "Y", "lat": 7.834743, "lng": 98.402049, "dead": "มีผู้เสียชีวิต", "inj": "มีผู้บาดเจ็บ" }, "geometry": { "type": "Point", "coordinates": [ 98.402049, 7.834743 ] } },
{ "type": "Feature", "properties": { "Unnamed: 0": 56, "accdate": "10\/01\/2021", "address": "โค้งอ่าวน้ำบ่อ", "accplace": "ขับ จยย.ล้มเอง", "isdead": "N", "lat": 7.842272, "lng": 98.389241, "dead": "ไม่มีผู้เสียชีวิต", "inj": "มีผู้บาดเจ็บ" }, "geometry": { "type": "Point", "coordinates": [ 98.389241, 7.842272 ] } },
{ "type": "Feature", "properties": { "Unnamed: 0": 57, "accdate": "10\/01\/2021", "address": "ถนนเยาวราชตัดถนนพังงา", "accplace": "ขับจยย ชน จยย", "isdead": "N", "lat": 7.896879, "lng": 98.3839, "dead": "ไม่มีผู้เสียชีวิต", "inj": "มีผู้บาดเจ็บ" }, "geometry": { "type": "Point", "coordinates": [ 98.3839, 7.896879 ] } },
{ "type": "Feature", "properties": { "Unnamed: 0": 58, "accdate": "10\/01\/2021", "address": "โค้งก่อนถึงซอยท่าจีน", "accplace": "ขับ จยย. ล้มเอง", "isdead": "N", "lat": 7.909346, "lng": 98.399828, "dead": "ไม่มีผู้เสียชีวิต", "inj": "มีผู้บาดเจ็บ" }, "geometry": { "type": "Point", "coordinates": [ 98.399828, 7.909346 ] } },
{ "type": "Feature", "properties": { "Unnamed: 0": 59, "accdate": "10\/01\/2021", "address": "บ้านวานิช", "accplace": "ขับ จยย. ล้มเอง", "isdead": "N", "lat": 7.881987, "lng": 98.413543, "dead": "ไม่มีผู้เสียชีวิต", "inj": "มีผู้บาดเจ็บ" }, "geometry": { "type": "Point", "coordinates": [ 98.413543, 7.881987 ] } },
{ "type": "Feature", "properties": { "Unnamed: 0": 60, "accdate": "10\/01\/2021", "address": "แยกเซ็นทรัล", "accplace": "ขับ จยย + จยย", "isdead": "N", "lat": 7.8514, "lng": 98.354107, "dead": "ไม่มีผู้เสียชีวิต", "inj": "มีผู้บาดเจ็บ" }, "geometry": { "type": "Point", "coordinates": [ 98.354107, 7.8514 ] } },
{ "type": "Feature", "properties": { "Unnamed: 0": 61, "accdate": "09\/01\/2021", "address": "ทางลงบริษัทไทยซาร์โก", "accplace": "ศรีษะบวมโน", "isdead": "N", "lat": 7.817496, "lng": 98.403585, "dead": "ไม่มีผู้เสียชีวิต", "inj": "มีผู้บาดเจ็บ" }, "geometry": { "type": "Point", "coordinates": [ 98.403585, 7.817496 ] } },
{ "type": "Feature", "properties": { "Unnamed: 0": 62, "accdate": "09\/01\/2021", "address": "หน้าสวนหลวง", "accplace": "รถตัดหน้ากระชั้นชิดทำให้เสียหลักล้ม", "isdead": "N", "lat": 7.879553, "lng": 98.381456, "dead": "ไม่มีผู้เสียชีวิต", "inj": "มีผู้บาดเจ็บ" }, "geometry": { "type": "Point", "coordinates": [ 98.381456, 7.879553 ] } },
{ "type": "Feature", "properties": { "Unnamed: 0": 63, "accdate": "06\/01\/2021", "address": "อีซูซุอันดามันเซลส์ เกาะแก้ว", "accplace": "MC", "isdead": "N", "lat": 7.967068, "lng": 98.373233, "dead": "ไม่มีผู้เสียชีวิต", "inj": "มีผู้บาดเจ็บ" }, "geometry": { "type": "Point", "coordinates": [ 98.373233, 7.967068 ] } },
{ "type": "Feature", "properties": { "Unnamed: 0": 64, "accdate": "10\/01\/2021", "address": "แยกครัวสุชา", "accplace": "จยย+จยย", "isdead": "N", "lat": 7.843019, "lng": 98.375823, "dead": "ไม่มีผู้เสียชีวิต", "inj": "มีผู้บาดเจ็บ" }, "geometry": { "type": "Point", "coordinates": [ 98.375823, 7.843019 ] } },
{ "type": "Feature", "properties": { "Unnamed: 0": 65, "accdate": "10\/01\/2021", "address": "หลังโตโยต้าดาวรุ่ง", "accplace": "จยย+จยย", "isdead": "N", "lat": 7.869274, "lng": 98.374494, "dead": "ไม่มีผู้เสียชีวิต", "inj": "มีผู้บาดเจ็บ" }, "geometry": { "type": "Point", "coordinates": [ 98.374494, 7.869274 ] } },
{ "type": "Feature", "properties": { "Unnamed: 0": 66, "accdate": "08\/01\/2021", "address": "ข้างโกเชอร์รี่", "accplace": "จยย. ชน สามล้อพ่วง", "isdead": "N", "lat": 7.8783490154897997, "lng": 98.398656249045999, "dead": "ไม่มีผู้เสียชีวิต", "inj": "มีผู้บาดเจ็บ" }, "geometry": { "type": "Point", "coordinates": [ 98.398656249045999, 7.8783490154898 ] } },
{ "type": "Feature", "properties": { "Unnamed: 0": 67, "accdate": "09\/01\/2021", "address": "ถนนบางกอก หน้าธนาคารอาคารสงเคราะห์", "accplace": "จยย.เบรกกระทันหันเสียหลักล้ม ", "isdead": "N", "lat": 7.881037, "lng": 98.386244, "dead": "ไม่มีผู้เสียชีวิต", "inj": "มีผู้บาดเจ็บ" }, "geometry": { "type": "Point", "coordinates": [ 98.386244, 7.881037 ] } },
{ "type": "Feature", "properties": { "Unnamed: 0": 68, "accdate": "06\/01\/2021", "address": "หน้าศาลแขวง", "accplace": "จยย. ชน กระบะ", "isdead": "N", "lat": 7.891293, "lng": 98.396097, "dead": "ไม่มีผู้เสียชีวิต", "inj": "มีผู้บาดเจ็บ" }, "geometry": { "type": "Point", "coordinates": [ 98.396097, 7.891293 ] } },
{ "type": "Feature", "properties": { "Unnamed: 0": 69, "accdate": "11\/01\/2021", "address": "หมู่บ้านเกาะสิเหร่", "accplace": "ขับ จยย. เสียหลักล้มเอง", "isdead": "N", "lat": 7.88897, "lng": 98.423248, "dead": "ไม่มีผู้เสียชีวิต", "inj": "มีผู้บาดเจ็บ" }, "geometry": { "type": "Point", "coordinates": [ 98.423248, 7.88897 ] } },
{ "type": "Feature", "properties": { "Unnamed: 0": 70, "accdate": "10\/01\/2021", "address": "หน้าวิลล่าสวนหลวง", "accplace": null, "isdead": "N", "lat": 7.873645, "lng": 98.36604, "dead": "ไม่มีผู้เสียชีวิต", "inj": "มีผู้บาดเจ็บ" }, "geometry": { "type": "Point", "coordinates": [ 98.36604, 7.873645 ] } },
{ "type": "Feature", "properties": { "Unnamed: 0": 71, "accdate": "08\/01\/2021", "address": "หาดราไวย์", "accplace": "ขับ จยย.ล้มเอง", "isdead": "N", "lat": 7.772041, "lng": 98.321648, "dead": "ไม่มีผู้เสียชีวิต", "inj": "มีผู้บาดเจ็บ" }, "geometry": { "type": "Point", "coordinates": [ 98.321648, 7.772041 ] } },
{ "type": "Feature", "properties": { "Unnamed: 0": 72, "accdate": "10\/01\/2021", "address": "หลังโตโยต้าดาวรุ่ง", "accplace": "จยย+จยย", "isdead": "N", "lat": 7.869279, "lng": 98.374497, "dead": "ไม่มีผู้เสียชีวิต", "inj": "มีผู้บาดเจ็บ" }, "geometry": { "type": "Point", "coordinates": [ 98.374497, 7.869279 ] } },
{ "type": "Feature", "properties": { "Unnamed: 0": 73, "accdate": "11\/01\/2021", "address": "หน้าสวนงู ถนนเหมืองเจ้าฟ้า", "accplace": null, "isdead": "N", "lat": 7.876511, "lng": 98.351452, "dead": "ไม่มีผู้เสียชีวิต", "inj": "มีผู้บาดเจ็บ" }, "geometry": { "type": "Point", "coordinates": [ 98.351452, 7.876511 ] } },
{ "type": "Feature", "properties": { "Unnamed: 0": 74, "accdate": "07\/01\/2021", "address": "แยกหยีเต้ง", "accplace": "ขับจยย ชน สามล้อพ่วง", "isdead": "N", "lat": 7.879408, "lng": 98.381546, "dead": "ไม่มีผู้เสียชีวิต", "inj": "มีผู้บาดเจ็บ" }, "geometry": { "type": "Point", "coordinates": [ 98.381546, 7.879408 ] } },
{ "type": "Feature", "properties": { "Unnamed: 0": 75, "accdate": "11\/01\/2021", "address": "หน้าคันทรีโฮม", "accplace": "ขับ จยย.+จยย", "isdead": "N", "lat": 7.8234634399414, "lng": 98.342056274414006, "dead": "ไม่มีผู้เสียชีวิต", "inj": "มีผู้บาดเจ็บ" }, "geometry": { "type": "Point", "coordinates": [ 98.342056274414006, 7.8234634399414 ] } },
{ "type": "Feature", "properties": { "Unnamed: 0": 76, "accdate": "12\/01\/2021", "address": "หน้าหาดราไวย์", "accplace": "MC ล้มเอง", "isdead": "N", "lat": 7.772039, "lng": 98.321637, "dead": "ไม่มีผู้เสียชีวิต", "inj": "มีผู้บาดเจ็บ" }, "geometry": { "type": "Point", "coordinates": [ 98.321637, 7.772039 ] } },
{ "type": "Feature", "properties": { "Unnamed: 0": 77, "accdate": "11\/01\/2021", "address": "หน้าร้านกันเอง2", "accplace": "เสียหลักล้ม", "isdead": "N", "lat": 7.825304, "lng": 98.34623, "dead": "ไม่มีผู้เสียชีวิต", "inj": "มีผู้บาดเจ็บ" }, "geometry": { "type": "Point", "coordinates": [ 98.34623, 7.825304 ] } },
{ "type": "Feature", "properties": { "Unnamed: 0": 78, "accdate": "12\/01\/2021", "address": "เยื้องธนาคารไทยพาณิชย์ก่อนถึงสวนหลวง", "accplace": "ขับ จยย. ล้มเอง", "isdead": "N", "lat": 7.878024, "lng": 98.380583, "dead": "ไม่มีผู้เสียชีวิต", "inj": "มีผู้บาดเจ็บ" }, "geometry": { "type": "Point", "coordinates": [ 98.380583, 7.878024 ] } },
{ "type": "Feature", "properties": { "Unnamed: 0": 79, "accdate": "12\/01\/2021", "address": "แยกโรงแรมเพิร์ล", "accplace": "จยย ชน จยย", "isdead": "N", "lat": 7.882814, "lng": 98.39269, "dead": "ไม่มีผู้เสียชีวิต", "inj": "มีผู้บาดเจ็บ" }, "geometry": { "type": "Point", "coordinates": [ 98.39269, 7.882814 ] } },
{ "type": "Feature", "properties": { "Unnamed: 0": 80, "accdate": "12\/01\/2021", "address": "แยกควนดินแดง", "accplace": "ขับจยย ชน รถยนต์", "isdead": "N", "lat": 7.929285, "lng": 98.390973, "dead": "ไม่มีผู้เสียชีวิต", "inj": "มีผู้บาดเจ็บ" }, "geometry": { "type": "Point", "coordinates": [ 98.390973, 7.929285 ] } },
{ "type": "Feature", "properties": { "Unnamed: 0": 81, "accdate": "12\/01\/2021", "address": "หน้าหมู่บ้านพนาสนธ์เมืองทอง", "accplace": null, "isdead": "N", "lat": 7.850207, "lng": 98.371706, "dead": "ไม่มีผู้เสียชีวิต", "inj": "มีผู้บาดเจ็บ" }, "geometry": { "type": "Point", "coordinates": [ 98.371706, 7.850207 ] } },
{ "type": "Feature", "properties": { "Unnamed: 0": 82, "accdate": "12\/01\/2021", "address": "ทางเข้า ม.บ้านชนกานต์บ่อแร่", "accplace": "จยย ล้มเอง ", "isdead": "N", "lat": 7.847429, "lng": 98.382212, "dead": "ไม่มีผู้เสียชีวิต", "inj": "มีผู้บาดเจ็บ" }, "geometry": { "type": "Point", "coordinates": [ 98.382212, 7.847429 ] } },
{ "type": "Feature", "properties": { "Unnamed: 0": 83, "accdate": "12\/01\/2021", "address": "หน้า รพ.วชิระ", "accplace": "ขับ จยย ล้มเอง ", "isdead": "N", "lat": 7.896866, "lng": 98.383864, "dead": "ไม่มีผู้เสียชีวิต", "inj": "มีผู้บาดเจ็บ" }, "geometry": { "type": "Point", "coordinates": [ 98.383864, 7.896866 ] } },
{ "type": "Feature", "properties": { "Unnamed: 0": 84, "accdate": "03\/01\/2021", "address": "บริเวณคิงพาวเวอร์", "accplace": "รถจักรยานยนต์ล้มเอง", "isdead": "N", "lat": 7.872837, "lng": 98.362262, "dead": "ไม่มีผู้เสียชีวิต", "inj": "มีผู้บาดเจ็บ" }, "geometry": { "type": "Point", "coordinates": [ 98.362262, 7.872837 ] } },
{ "type": "Feature", "properties": { "Unnamed: 0": 85, "accdate": "04\/01\/2021", "address": "ตลาดทวีสมาน", "accplace": "ขี่MC ล้มเอง ถนนลื่นทำให้รถล้ม", "isdead": "N", "lat": 7.915489, "lng": 98.37182, "dead": "ไม่มีผู้เสียชีวิต", "inj": "มีผู้บาดเจ็บ" }, "geometry": { "type": "Point", "coordinates": [ 98.37182, 7.915489 ] } },
{ "type": "Feature", "properties": { "Unnamed: 0": 86, "accdate": "04\/01\/2021", "address": "หน้าแมคโคร", "accplace": "MCA ล้มเอง ", "isdead": "N", "lat": 7.884381, "lng": 98.38149, "dead": "ไม่มีผู้เสียชีวิต", "inj": "มีผู้บาดเจ็บ" }, "geometry": { "type": "Point", "coordinates": [ 98.38149, 7.884381 ] } },
{ "type": "Feature", "properties": { "Unnamed: 0": 87, "accdate": "05\/01\/2021", "address": "แสงดำรง-นาคา", "accplace": "MC+CAR", "isdead": "N", "lat": 7.880795, "lng": 98.373643, "dead": "ไม่มีผู้เสียชีวิต", "inj": "มีผู้บาดเจ็บ" }, "geometry": { "type": "Point", "coordinates": [ 98.373643, 7.880795 ] } },
{ "type": "Feature", "properties": { "Unnamed: 0": 88, "accdate": "04\/01\/2021", "address": "สี่แยกยี่เต้ง", "accplace": "อุบัติเหตุมอเตอร์ไซค์ชนมอเตอร์ไซค์มีอาการเจ็บหน้าอกด้านขวา ไหล่ขวา ไม่สลบจำเหตุการณ์ได้,", "isdead": "N", "lat": 7.8795336557517999, "lng": 98.381578288971994, "dead": "ไม่มีผู้เสียชีวิต", "inj": "มีผู้บาดเจ็บ" }, "geometry": { "type": "Point", "coordinates": [ 98.381578288971994, 7.8795336557518 ] } },
{ "type": "Feature", "properties": { "Unnamed: 0": 89, "accdate": "07\/01\/2021", "address": "หน้าหมู่บ้านแลนด์แอนเฮาส์", "accplace": "แมววิ่งตัดหน้า ขับรถชนแมว", "isdead": "N", "lat": 7.840725, "lng": 98.341365, "dead": "ไม่มีผู้เสียชีวิต", "inj": "มีผู้บาดเจ็บ" }, "geometry": { "type": "Point", "coordinates": [ 98.341365, 7.840725 ] } },
{ "type": "Feature", "properties": { "Unnamed: 0": 90, "accdate": "08\/01\/2021", "address": "หน้าศาลเจ้ากวางตุ้ง", "accplace": "ถนนลื่นน้ำมัน ทำให้รถล้มพลิกคว่ำ", "isdead": "N", "lat": 7.883774, "lng": 98.387888, "dead": "ไม่มีผู้เสียชีวิต", "inj": "มีผู้บาดเจ็บ" }, "geometry": { "type": "Point", "coordinates": [ 98.387888, 7.883774 ] } },
{ "type": "Feature", "properties": { "Unnamed: 0": 91, "accdate": "12\/01\/2021", "address": "อยามัยแหลมชั้น", "accplace": "ขับ จยย ชน แมว", "isdead": "N", "lat": 7.86135, "lng": 98.373383, "dead": "ไม่มีผู้เสียชีวิต", "inj": "มีผู้บาดเจ็บ" }, "geometry": { "type": "Point", "coordinates": [ 98.373383, 7.86135 ] } },
{ "type": "Feature", "properties": { "Unnamed: 0": 92, "accdate": "13\/01\/2021", "address": "5 เเยกไฟเเดงฉลอง", "accplace": "ขับ จยย.ล้มเอง", "isdead": "N", "lat": 7.843898, "lng": 98.341876, "dead": "ไม่มีผู้เสียชีวิต", "inj": "มีผู้บาดเจ็บ" }, "geometry": { "type": "Point", "coordinates": [ 98.341876, 7.843898 ] } },
{ "type": "Feature", "properties": { "Unnamed: 0": 93, "accdate": "13\/01\/2021", "address": "อ่าวมะขาม บ่อแร่", "accplace": "ขับ จยย. ล้มเอง", "isdead": "N", "lat": 7.82551, "lng": 98.400853, "dead": "ไม่มีผู้เสียชีวิต", "inj": "มีผู้บาดเจ็บ" }, "geometry": { "type": "Point", "coordinates": [ 98.400853, 7.82551 ] } },
{ "type": "Feature", "properties": { "Unnamed: 0": 94, "accdate": "13\/01\/2021", "address": "ถนนศักดิเดช", "accplace": "จยย ชนสุนัข", "isdead": "N", "lat": 7.864734, "lng": 98.380423, "dead": "ไม่มีผู้เสียชีวิต", "inj": "มีผู้บาดเจ็บ" }, "geometry": { "type": "Point", "coordinates": [ 98.380423, 7.864734 ] } },
{ "type": "Feature", "properties": { "Unnamed: 0": 95, "accdate": "13\/01\/2021", "address": "ซอยกิ่งแก้ว", "accplace": "จยย ชน จยย.(ทราบทะเบียน แต่ไม่ทราบชื่อผู้ขับขี่)", "isdead": "N", "lat": 7.902145, "lng": 98.415084, "dead": "ไม่มีผู้เสียชีวิต", "inj": "มีผู้บาดเจ็บ" }, "geometry": { "type": "Point", "coordinates": [ 98.415084, 7.902145 ] } },
{ "type": "Feature", "properties": { "Unnamed: 0": 96, "accdate": "13\/01\/2021", "address": "ตลาดทวีสมาน", "accplace": "ขับ จยย. ล้มเอง", "isdead": "N", "lat": 7.915527, "lng": 98.371631, "dead": "ไม่มีผู้เสียชีวิต", "inj": "มีผู้บาดเจ็บ" }, "geometry": { "type": "Point", "coordinates": [ 98.371631, 7.915527 ] } },
{ "type": "Feature", "properties": { "Unnamed: 0": 97, "accdate": "12\/01\/2021", "address": "ฟิชเชอร์แมนเวย์", "accplace": "ขับ จยย.+รถเก๋ง", "isdead": "Y", "lat": 7.798504, "lng": 98.334751, "dead": "มีผู้เสียชีวิต", "inj": "มีผู้บาดเจ็บ" }, "geometry": { "type": "Point", "coordinates": [ 98.334751, 7.798504 ] } },
{ "type": "Feature", "properties": { "Unnamed: 0": 98, "accdate": "13\/01\/2021", "address": "หน้าตลาดนัดพอเพียง", "accplace": "อบ.รถจักรยานยนต์เฉี่ยวชนกับรถจักรยานยนต์", "isdead": "N", "lat": 7.818839, "lng": 98.307705, "dead": "ไม่มีผู้เสียชีวิต", "inj": "มีผู้บาดเจ็บ" }, "geometry": { "type": "Point", "coordinates": [ 98.307705, 7.818839 ] } },
{ "type": "Feature", "properties": { "Unnamed: 0": 99, "accdate": "13\/01\/2021", "address": "ก่อนถึง ธนาคาร ไทยพาณิชย์ ถนน รัชดา", "accplace": "จยย ชน กระบะ จอดข้างทาง", "isdead": "N", "lat": 7.915535, "lng": 98.393622, "dead": "ไม่มีผู้เสียชีวิต", "inj": "มีผู้บาดเจ็บ" }, "geometry": { "type": "Point", "coordinates": [ 98.393622, 7.915535 ] } },
{ "type": "Feature", "properties": { "Unnamed: 0": 100, "accdate": "14\/01\/2021", "address": "ทางเข้าซอยแสงสุข ซอย 1", "accplace": "ขับจยย. หักหลบ สุนัขวิ่งตัดหน้า ", "isdead": "N", "lat": 7.831447, "lng": 98.350025, "dead": "ไม่มีผู้เสียชีวิต", "inj": "มีผู้บาดเจ็บ" }, "geometry": { "type": "Point", "coordinates": [ 98.350025, 7.831447 ] } },
{ "type": "Feature", "properties": { "Unnamed: 0": 101, "accdate": "14\/01\/2021", "address": "ถนนขวาง", "accplace": "ขับ จยย ชน ไม่กั้นประตู", "isdead": "N", "lat": 7.858846, "lng": 98.357662, "dead": "ไม่มีผู้เสียชีวิต", "inj": "มีผู้บาดเจ็บ" }, "geometry": { "type": "Point", "coordinates": [ 98.357662, 7.858846 ] } },
{ "type": "Feature", "properties": { "Unnamed: 0": 102, "accdate": "14\/01\/2021", "address": "ซอยต้นโพธิ์", "accplace": "จยย. ล้มเอง", "isdead": "N", "lat": 7.872656, "lng": 98.392334, "dead": "ไม่มีผู้เสียชีวิต", "inj": "มีผู้บาดเจ็บ" }, "geometry": { "type": "Point", "coordinates": [ 98.392334, 7.872656 ] } },
{ "type": "Feature", "properties": { "Unnamed: 0": 103, "accdate": "14\/01\/2021", "address": "แยกสามกอง", "accplace": "จยย+จยย", "isdead": "N", "lat": 7.905816, "lng": 98.367727, "dead": "ไม่มีผู้เสียชีวิต", "inj": "มีผู้บาดเจ็บ" }, "geometry": { "type": "Point", "coordinates": [ 98.367727, 7.905816 ] } },
{ "type": "Feature", "properties": { "Unnamed: 0": 104, "accdate": "13\/01\/2021", "address": "หน้า7-11 บ่อแร่", "accplace": "เสียหลักล้ม", "isdead": "N", "lat": 7.8478379249573003, "lng": 98.382377624512003, "dead": "ไม่มีผู้เสียชีวิต", "inj": "มีผู้บาดเจ็บ" }, "geometry": { "type": "Point", "coordinates": [ 98.382377624512003, 7.8478379249573 ] } },
{ "type": "Feature", "properties": { "Unnamed: 0": 105, "accdate": "14\/01\/2021", "address": "เหมืองเจ้าฟ้า", "accplace": "เสียหลักล้ม", "isdead": "N", "lat": 7.881301, "lng": 98.356231, "dead": "ไม่มีผู้เสียชีวิต", "inj": "มีผู้บาดเจ็บ" }, "geometry": { "type": "Point", "coordinates": [ 98.356231, 7.881301 ] } },
{ "type": "Feature", "properties": { "Unnamed: 0": 106, "accdate": "12\/01\/2021", "address": "แยกโรงแรมเพิร์ล", "accplace": "จยย. ชน จยย.", "isdead": "N", "lat": 7.88283, "lng": 98.392693, "dead": "ไม่มีผู้เสียชีวิต", "inj": "มีผู้บาดเจ็บ" }, "geometry": { "type": "Point", "coordinates": [ 98.392693, 7.88283 ] } },
{ "type": "Feature", "properties": { "Unnamed: 0": 107, "accdate": "15\/01\/2021", "address": "ซอยแม่ขำ", "accplace": "ขับ จยย ล้มเอง", "isdead": "N", "lat": 7.908262, "lng": 98.402298, "dead": "ไม่มีผู้เสียชีวิต", "inj": "มีผู้บาดเจ็บ" }, "geometry": { "type": "Point", "coordinates": [ 98.402298, 7.908262 ] } },
{ "type": "Feature", "properties": { "Unnamed: 0": 108, "accdate": "16\/01\/2021", "address": "เนินทรายหน้าโรงพักเกาะสิเหร่", "accplace": "MCA ลื่นล้ม", "isdead": "N", "lat": 7.88076, "lng": 98.427059, "dead": "ไม่มีผู้เสียชีวิต", "inj": "มีผู้บาดเจ็บ" }, "geometry": { "type": "Point", "coordinates": [ 98.427059, 7.88076 ] } },
{ "type": "Feature", "properties": { "Unnamed: 0": 109, "accdate": "16\/01\/2021", "address": "สามแยกบำรุงปากเรียง", "accplace": "ล้มเอง ลื่นน้ำขยะ", "isdead": "N", "lat": 7.909338, "lng": 98.399897, "dead": "ไม่มีผู้เสียชีวิต", "inj": "มีผู้บาดเจ็บ" }, "geometry": { "type": "Point", "coordinates": [ 98.399897, 7.909338 ] } },
{ "type": "Feature", "properties": { "Unnamed: 0": 110, "accdate": "15\/01\/2021", "address": "ยูเทรินบ้านวานิช", "accplace": "จยย.ชนท้ายCar.", "isdead": "Y", "lat": 7.882808, "lng": 98.410148, "dead": "มีผู้เสียชีวิต", "inj": "มีผู้บาดเจ็บ" }, "geometry": { "type": "Point", "coordinates": [ 98.410148, 7.882808 ] } },
{ "type": "Feature", "properties": { "Unnamed: 0": 111, "accdate": "14\/01\/2021", "address": "4 แยกโลตัสภูเก็ต", "accplace": "MC+MC", "isdead": "N", "lat": 7.905678, "lng": 98.367702, "dead": "ไม่มีผู้เสียชีวิต", "inj": "มีผู้บาดเจ็บ" }, "geometry": { "type": "Point", "coordinates": [ 98.367702, 7.905678 ] } },
{ "type": "Feature", "properties": { "Unnamed: 0": 112, "accdate": "16\/01\/2021", "address": "รร.นานาชาติบริชตริช", "accplace": "รถคว่ำเลื่อนทราย", "isdead": "N", "lat": 7.922768, "lng": 98.39415, "dead": "ไม่มีผู้เสียชีวิต", "inj": "มีผู้บาดเจ็บ" }, "geometry": { "type": "Point", "coordinates": [ 98.39415, 7.922768 ] } },
{ "type": "Feature", "properties": { "Unnamed: 0": 113, "accdate": "16\/01\/2021", "address": "แหลมพรหมเทพ", "accplace": "เท้าหล่นจากที่พักเท้า จยย. ทำให้เสียหลักล้มเอง", "isdead": "N", "lat": 7.761412, "lng": 98.306505, "dead": "ไม่มีผู้เสียชีวิต", "inj": "มีผู้บาดเจ็บ" }, "geometry": { "type": "Point", "coordinates": [ 98.306505, 7.761412 ] } },
{ "type": "Feature", "properties": { "Unnamed: 0": 114, "accdate": "17\/01\/2021", "address": "ตลาดคลองมุดง", "accplace": "เสียหลักล้ม โดนสุนัขตัดหน้า", "isdead": "N", "lat": 7.843019, "lng": 98.375818, "dead": "ไม่มีผู้เสียชีวิต", "inj": "มีผู้บาดเจ็บ" }, "geometry": { "type": "Point", "coordinates": [ 98.375818, 7.843019 ] } },
{ "type": "Feature", "properties": { "Unnamed: 0": 115, "accdate": "12\/01\/2021", "address": "หน้าโรงเรียนบ้านนาบอน", "accplace": "จยย ชน จยย", "isdead": "N", "lat": 7.85379, "lng": 98.355893, "dead": "ไม่มีผู้เสียชีวิต", "inj": "มีผู้บาดเจ็บ" }, "geometry": { "type": "Point", "coordinates": [ 98.355893, 7.85379 ] } },
{ "type": "Feature", "properties": { "Unnamed: 0": 116, "accdate": "16\/01\/2021", "address": "หน้าโรงไฟฟ้า", "accplace": "จยย ชน จยย ", "isdead": "N", "lat": 7.915508, "lng": 98.393779, "dead": "ไม่มีผู้เสียชีวิต", "inj": "มีผู้บาดเจ็บ" }, "geometry": { "type": "Point", "coordinates": [ 98.393779, 7.915508 ] } },
{ "type": "Feature", "properties": { "Unnamed: 0": 117, "accdate": "16\/01\/2021", "address": "หมู่บ้านทานทอง", "accplace": "ขับ จยย. ล้มเอง ", "isdead": "N", "lat": 7.848975, "lng": 98.372977, "dead": "ไม่มีผู้เสียชีวิต", "inj": "มีผู้บาดเจ็บ" }, "geometry": { "type": "Point", "coordinates": [ 98.372977, 7.848975 ] } },
{ "type": "Feature", "properties": { "Unnamed: 0": 118, "accdate": "16\/01\/2021", "address": "ปากซอยดวงแข", "accplace": "จยย ชน จยย", "isdead": "N", "lat": 7.909069, "lng": 98.399635, "dead": "ไม่มีผู้เสียชีวิต", "inj": "มีผู้บาดเจ็บ" }, "geometry": { "type": "Point", "coordinates": [ 98.399635, 7.909069 ] } },
{ "type": "Feature", "properties": { "Unnamed: 0": 119, "accdate": "17\/01\/2021", "address": "หลัง วค.", "accplace": "ขับ จยย.ชนลวดหนาม ล้มลง", "isdead": "N", "lat": 7.906184, "lng": 98.38134, "dead": "ไม่มีผู้เสียชีวิต", "inj": "มีผู้บาดเจ็บ" }, "geometry": { "type": "Point", "coordinates": [ 98.38134, 7.906184 ] } },
{ "type": "Feature", "properties": { "Unnamed: 0": 120, "accdate": "16\/01\/2021", "address": "โรงแรมโบ๊ทเฮาส์", "accplace": "ขณะกำลังจะสตาร์ทรถ เสียหลัก รถจยย. ล้มทับ", "isdead": "N", "lat": 7.816546, "lng": 98.30678, "dead": "ไม่มีผู้เสียชีวิต", "inj": "มีผู้บาดเจ็บ" }, "geometry": { "type": "Point", "coordinates": [ 98.30678, 7.816546 ] } },
{ "type": "Feature", "properties": { "Unnamed: 0": 121, "accdate": "17\/01\/2021", "address": "วงเวียนม้าน้ำ", "accplace": "จยย. ล้มเอง", "isdead": "N", "lat": 7.878942, "lng": 98.397993, "dead": "ไม่มีผู้เสียชีวิต", "inj": "มีผู้บาดเจ็บ" }, "geometry": { "type": "Point", "coordinates": [ 98.397993, 7.878942 ] } },
{ "type": "Feature", "properties": { "Unnamed: 0": 122, "accdate": "15\/01\/2021", "address": "ตรงข้ามปั้ม ปตท.", "accplace": "ขับ จยย. ชน เก๋ง จอดข้างทาง", "isdead": "N", "lat": 7.910051170289, "lng": 98.392112329602, "dead": "ไม่มีผู้เสียชีวิต", "inj": "มีผู้บาดเจ็บ" }, "geometry": { "type": "Point", "coordinates": [ 98.392112329602, 7.910051170289 ] } },
{ "type": "Feature", "properties": { "Unnamed: 0": 123, "accdate": "18\/01\/2021", "address": "ศาลากลาง", "accplace": "ขับ จยย.+รถยนต์", "isdead": "N", "lat": 7.890184, "lng": 98.398864, "dead": "ไม่มีผู้เสียชีวิต", "inj": "มีผู้บาดเจ็บ" }, "geometry": { "type": "Point", "coordinates": [ 98.398864, 7.890184 ] } },
{ "type": "Feature", "properties": { "Unnamed: 0": 124, "accdate": "18\/01\/2021", "address": "หน้าโกรเชอรี่", "accplace": "จยย ชน 6 ล้อ ชน กระบะ", "isdead": "N", "lat": 7.878305, "lng": 98.39807, "dead": "ไม่มีผู้เสียชีวิต", "inj": "มีผู้บาดเจ็บ" }, "geometry": { "type": "Point", "coordinates": [ 98.39807, 7.878305 ] } },
{ "type": "Feature", "properties": { "Unnamed: 0": 125, "accdate": "12\/01\/2021", "address": "บ้านเลขที่ 128\/41 ซอยผู้กอง", "accplace": "ขณะกำลังจะใช้รถได้เข็นรถออกจากบ้าน เท้าไปโดนชาตั้ง", "isdead": "N", "lat": 7.917731, "lng": 98.370152, "dead": "ไม่มีผู้เสียชีวิต", "inj": "มีผู้บาดเจ็บ" }, "geometry": { "type": "Point", "coordinates": [ 98.370152, 7.917731 ] } },
{ "type": "Feature", "properties": { "Unnamed: 0": 126, "accdate": "18\/01\/2021", "address": "ธ.กรุงไทย บขส.เก่า", "accplace": "ขับ จยย. ชน จยย.", "isdead": "N", "lat": 7.882997, "lng": 98.395271, "dead": "ไม่มีผู้เสียชีวิต", "inj": "มีผู้บาดเจ็บ" }, "geometry": { "type": "Point", "coordinates": [ 98.395271, 7.882997 ] } },
{ "type": "Feature", "properties": { "Unnamed: 0": 127, "accdate": "19\/01\/2021", "address": "ยูเทริ์นสะปำ", "accplace": "ขับ จยย ชน กระบะ", "isdead": "N", "lat": 7.928796, "lng": 98.395655, "dead": "ไม่มีผู้เสียชีวิต", "inj": "มีผู้บาดเจ็บ" }, "geometry": { "type": "Point", "coordinates": [ 98.395655, 7.928796 ] } },
{ "type": "Feature", "properties": { "Unnamed: 0": 128, "accdate": "19\/01\/2021", "address": "บ่อแร่", "accplace": "ขับ จยย ชน จยย ", "isdead": "N", "lat": 7.847411, "lng": 98.382146, "dead": "ไม่มีผู้เสียชีวิต", "inj": "มีผู้บาดเจ็บ" }, "geometry": { "type": "Point", "coordinates": [ 98.382146, 7.847411 ] } },
{ "type": "Feature", "properties": { "Unnamed: 0": 129, "accdate": "19\/01\/2021", "address": "หน้าวัดเทพ", "accplace": "ขับ จยย ชน รถตู้", "isdead": "N", "lat": 7.862124, "lng": 98.369438, "dead": "ไม่มีผู้เสียชีวิต", "inj": "มีผู้บาดเจ็บ" }, "geometry": { "type": "Point", "coordinates": [ 98.369438, 7.862124 ] } },
{ "type": "Feature", "properties": { "Unnamed: 0": 130, "accdate": "19\/01\/2021", "address": "จุดคัดกรอง 4000 ที่นั่งสะพานหิน", "accplace": "โดยสาร จยย.ล้มเอง", "isdead": "N", "lat": 7.865257, "lng": 98.3956, "dead": "ไม่มีผู้เสียชีวิต", "inj": "มีผู้บาดเจ็บ" }, "geometry": { "type": "Point", "coordinates": [ 98.3956, 7.865257 ] } },
{ "type": "Feature", "properties": { "Unnamed: 0": 131, "accdate": "18\/01\/2021", "address": "สีแยกโรงไฟฟ้ารัษฏา", "accplace": "MC ", "isdead": "N", "lat": 7.90908, "lng": 98.399655, "dead": "ไม่มีผู้เสียชีวิต", "inj": "มีผู้บาดเจ็บ" }, "geometry": { "type": "Point", "coordinates": [ 98.399655, 7.90908 ] } },
{ "type": "Feature", "properties": { "Unnamed: 0": 132, "accdate": "20\/01\/2021", "address": "ปากซอยสันติสุข", "accplace": "จยย ชน จยย", "isdead": "N", "lat": 7.835146, "lng": 98.401263, "dead": "ไม่มีผู้เสียชีวิต", "inj": "มีผู้บาดเจ็บ" }, "geometry": { "type": "Point", "coordinates": [ 98.401263, 7.835146 ] } },
{ "type": "Feature", "properties": { "Unnamed: 0": 133, "accdate": "15\/01\/2021", "address": "ป่าหลาย", "accplace": null, "isdead": "N", "lat": 7.842838, "lng": 98.356673, "dead": "ไม่มีผู้เสียชีวิต", "inj": "มีผู้บาดเจ็บ" }, "geometry": { "type": "Point", "coordinates": [ 98.356673, 7.842838 ] } },
{ "type": "Feature", "properties": { "Unnamed: 0": 134, "accdate": "16\/01\/2021", "address": "ซอยหัวพรุ", "accplace": null, "isdead": "N", "lat": 7.782202, "lng": 98.318733, "dead": "ไม่มีผู้เสียชีวิต", "inj": "มีผู้บาดเจ็บ" }, "geometry": { "type": "Point", "coordinates": [ 98.318733, 7.782202 ] } },
{ "type": "Feature", "properties": { "Unnamed: 0": 135, "accdate": "16\/01\/2021", "address": "ซอยไสยวน", "accplace": "ขับจยย.ล้มเอง", "isdead": "N", "lat": 7.796887, "lng": 98.327226, "dead": "ไม่มีผู้เสียชีวิต", "inj": "มีผู้บาดเจ็บ" }, "geometry": { "type": "Point", "coordinates": [ 98.327226, 7.796887 ] } },
{ "type": "Feature", "properties": { "Unnamed: 0": 136, "accdate": "18\/01\/2021", "address": "จุดชมวิวกะตะ", "accplace": "จยย+รถยนต์", "isdead": "N", "lat": 7.797208, "lng": 98.30249, "dead": "ไม่มีผู้เสียชีวิต", "inj": "มีผู้บาดเจ็บ" }, "geometry": { "type": "Point", "coordinates": [ 98.30249, 7.797208 ] } },
{ "type": "Feature", "properties": { "Unnamed: 0": 137, "accdate": "18\/01\/2021", "address": "หน้ามัสยิด บางคณฑี", "accplace": "จยย+จยย", "isdead": "N", "lat": 7.8093929290770996, "lng": 98.337623596190994, "dead": "ไม่มีผู้เสียชีวิต", "inj": "มีผู้บาดเจ็บ" }, "geometry": { "type": "Point", "coordinates": [ 98.337623596190994, 7.8093929290771 ] } },
{ "type": "Feature", "properties": { "Unnamed: 0": 138, "accdate": "09\/01\/2021", "address": "บริเวณใกล้วัดเกาะสิเหร่", "accplace": "ล้มMC", "isdead": "N", "lat": 7.880744, "lng": 98.427096, "dead": "ไม่มีผู้เสียชีวิต", "inj": "มีผู้บาดเจ็บ" }, "geometry": { "type": "Point", "coordinates": [ 98.427096, 7.880744 ] } },
{ "type": "Feature", "properties": { "Unnamed: 0": 139, "accdate": "21\/01\/2021", "address": "ถนนแม่หลวน", "accplace": "ขับ จยย. ชน เก๋ง", "isdead": "N", "lat": 7.888078, "lng": 98.380388, "dead": "ไม่มีผู้เสียชีวิต", "inj": "มีผู้บาดเจ็บ" }, "geometry": { "type": "Point", "coordinates": [ 98.380388, 7.888078 ] } },
{ "type": "Feature", "properties": { "Unnamed: 0": 140, "accdate": "21\/01\/2021", "address": "โค้งสะตอ", "accplace": "จยย.ล้มเอง", "isdead": "N", "lat": 7.844988, "lng": 98.340158, "dead": "ไม่มีผู้เสียชีวิต", "inj": "มีผู้บาดเจ็บ" }, "geometry": { "type": "Point", "coordinates": [ 98.340158, 7.844988 ] } },
{ "type": "Feature", "properties": { "Unnamed: 0": 141, "accdate": "21\/01\/2021", "address": "ปากทางเข้าธรณีทอง", "accplace": "จยย+รถยนต์", "isdead": "N", "lat": 7.909072, "lng": 98.399643, "dead": "ไม่มีผู้เสียชีวิต", "inj": "มีผู้บาดเจ็บ" }, "geometry": { "type": "Point", "coordinates": [ 98.399643, 7.909072 ] } },
{ "type": "Feature", "properties": { "Unnamed: 0": 142, "accdate": "14\/01\/2021", "address": "หน้าตลาดวัดเทพนิมิต", "accplace": "จยย.เสียหลักลมเอง", "isdead": "N", "lat": 7.859506, "lng": 98.369569, "dead": "ไม่มีผู้เสียชีวิต", "inj": "มีผู้บาดเจ็บ" }, "geometry": { "type": "Point", "coordinates": [ 98.369569, 7.859506 ] } },
{ "type": "Feature", "properties": { "Unnamed: 0": 143, "accdate": "21\/01\/2021", "address": "แยกอำเภอ", "accplace": "ขับจยย ชน จยย ", "isdead": "N", "lat": 7.885483, "lng": 98.403886, "dead": "ไม่มีผู้เสียชีวิต", "inj": "มีผู้บาดเจ็บ" }, "geometry": { "type": "Point", "coordinates": [ 98.403886, 7.885483 ] } },
{ "type": "Feature", "properties": { "Unnamed: 0": 144, "accdate": "22\/01\/2021", "address": "ซอยแม่กลิ่น", "accplace": "ขับ จยย ชน สุนัข", "isdead": "N", "lat": 7.905666, "lng": 98.399325, "dead": "ไม่มีผู้เสียชีวิต", "inj": "มีผู้บาดเจ็บ" }, "geometry": { "type": "Point", "coordinates": [ 98.399325, 7.905666 ] } },
{ "type": "Feature", "properties": { "Unnamed: 0": 145, "accdate": "22\/01\/2021", "address": "ก่อนถึงรพ.กรุงเทพ", "accplace": "จยย. ชน สุนัข", "isdead": "N", "lat": 7.903346, "lng": 98.375981, "dead": "ไม่มีผู้เสียชีวิต", "inj": "มีผู้บาดเจ็บ" }, "geometry": { "type": "Point", "coordinates": [ 98.375981, 7.903346 ] } },
{ "type": "Feature", "properties": { "Unnamed: 0": 146, "accdate": "22\/01\/2021", "address": "หน้า รพ.วชิระ", "accplace": "ขับ จยย. ล้มเอง", "isdead": "N", "lat": 7.896863, "lng": 98.383858, "dead": "ไม่มีผู้เสียชีวิต", "inj": "มีผู้บาดเจ็บ" }, "geometry": { "type": "Point", "coordinates": [ 98.383858, 7.896863 ] } },
{ "type": "Feature", "properties": { "Unnamed: 0": 147, "accdate": "23\/01\/2021", "address": "หน้าราชรสติ่มซำ", "accplace": "จยย ชน จยย", "isdead": "N", "lat": 7.891106, "lng": 98.385923, "dead": "ไม่มีผู้เสียชีวิต", "inj": "มีผู้บาดเจ็บ" }, "geometry": { "type": "Point", "coordinates": [ 98.385923, 7.891106 ] } },
{ "type": "Feature", "properties": { "Unnamed: 0": 148, "accdate": "23\/01\/2021", "address": "ทางเข้าศูนย์กู้ชีพทต.วิชิต", "accplace": "จยย. ชน จยย.", "isdead": "N", "lat": 7.860099, "lng": 98.36811, "dead": "ไม่มีผู้เสียชีวิต", "inj": "มีผู้บาดเจ็บ" }, "geometry": { "type": "Point", "coordinates": [ 98.36811, 7.860099 ] } },
{ "type": "Feature", "properties": { "Unnamed: 0": 149, "accdate": "13\/01\/2021", "address": "หน้า มบ.แคลิฟอร์เนีย ภูเก็ต", "accplace": "MC.+MC.", "isdead": "N", "lat": 7.861085, "lng": 98.361951, "dead": "ไม่มีผู้เสียชีวิต", "inj": "มีผู้บาดเจ็บ" }, "geometry": { "type": "Point", "coordinates": [ 98.361951, 7.861085 ] } },
{ "type": "Feature", "properties": { "Unnamed: 0": 150, "accdate": "15\/01\/2021", "address": "ปั้มน้ำมันคาร์แท็ก วิชิต", "accplace": "ขี่่MC ล้มเอง\r\n", "isdead": "N", "lat": 7.890351, "lng": 98.390209, "dead": "ไม่มีผู้เสียชีวิต", "inj": "มีผู้บาดเจ็บ" }, "geometry": { "type": "Point", "coordinates": [ 98.390209, 7.890351 ] } },
{ "type": "Feature", "properties": { "Unnamed: 0": 151, "accdate": "18\/01\/2021", "address": "บายพาส", "accplace": "MCA", "isdead": "N", "lat": 7.869854, "lng": 98.358463, "dead": "ไม่มีผู้เสียชีวิต", "inj": "มีผู้บาดเจ็บ" }, "geometry": { "type": "Point", "coordinates": [ 98.358463, 7.869854 ] } },
{ "type": "Feature", "properties": { "Unnamed: 0": 152, "accdate": "21\/01\/2021", "address": "ตรงกันข้ามโลตัสภูเก็ต", "accplace": "รถจักรยานยนต์เสียหลััก ล้มเอง", "isdead": "N", "lat": 7.859292, "lng": 98.36521, "dead": "ไม่มีผู้เสียชีวิต", "inj": "มีผู้บาดเจ็บ" }, "geometry": { "type": "Point", "coordinates": [ 98.36521, 7.859292 ] } },
{ "type": "Feature", "properties": { "Unnamed: 0": 153, "accdate": "22\/01\/2021", "address": "หน้าดาวินชี่", "accplace": "ชนท้ายรถเก๋ง", "isdead": "N", "lat": 7.81168, "lng": 98.29754, "dead": "ไม่มีผู้เสียชีวิต", "inj": "มีผู้บาดเจ็บ" }, "geometry": { "type": "Point", "coordinates": [ 98.29754, 7.81168 ] } },
{ "type": "Feature", "properties": { "Unnamed: 0": 154, "accdate": "23\/01\/2021", "address": "ปั้มคาลเท็กนาบอน", "accplace": "จยย.ล้มเอง", "isdead": "N", "lat": 7.85084, "lng": 98.353501, "dead": "ไม่มีผู้เสียชีวิต", "inj": "มีผู้บาดเจ็บ" }, "geometry": { "type": "Point", "coordinates": [ 98.353501, 7.85084 ] } },
{ "type": "Feature", "properties": { "Unnamed: 0": 155, "accdate": "24\/01\/2021", "address": "หน้าอนามัยแหลมชั่น", "accplace": "จยย.ล้มเอง", "isdead": "N", "lat": 7.86135, "lng": 98.373385, "dead": "ไม่มีผู้เสียชีวิต", "inj": "มีผู้บาดเจ็บ" }, "geometry": { "type": "Point", "coordinates": [ 98.373385, 7.86135 ] } },
{ "type": "Feature", "properties": { "Unnamed: 0": 156, "accdate": "24\/01\/2021", "address": "ถนนขวาง", "accplace": "จยย.ล้มเอง", "isdead": "N", "lat": 7.858223, "lng": 98.357133, "dead": "ไม่มีผู้เสียชีวิต", "inj": "มีผู้บาดเจ็บ" }, "geometry": { "type": "Point", "coordinates": [ 98.357133, 7.858223 ] } },
{ "type": "Feature", "properties": { "Unnamed: 0": 157, "accdate": "24\/01\/2021", "address": "ตรงข้ามซอยนากก", "accplace": "กำลังจะสตาร์ทรถ ที่สตาร์ทเท้าดีดใส่เท้าซ้าย", "isdead": "N", "lat": 7.862276, "lng": 98.334831, "dead": "ไม่มีผู้เสียชีวิต", "inj": "มีผู้บาดเจ็บ" }, "geometry": { "type": "Point", "coordinates": [ 98.334831, 7.862276 ] } },
{ "type": "Feature", "properties": { "Unnamed: 0": 158, "accdate": "24\/01\/2021", "address": "หน้าหมู่บ้านณัฐกมล กู้กู", "accplace": "ขับ จยย. ล้มเอง", "isdead": "N", "lat": 7.895403, "lng": 98.406083, "dead": "ไม่มีผู้เสียชีวิต", "inj": "มีผู้บาดเจ็บ" }, "geometry": { "type": "Point", "coordinates": [ 98.406083, 7.895403 ] } },
{ "type": "Feature", "properties": { "Unnamed: 0": 159, "accdate": "19\/01\/2021", "address": "หลังวัดกะรน", "accplace": "ขับ จยย ล้มเอง", "isdead": "N", "lat": 7.847599, "lng": 98.297895, "dead": "ไม่มีผู้เสียชีวิต", "inj": "มีผู้บาดเจ็บ" }, "geometry": { "type": "Point", "coordinates": [ 98.297895, 7.847599 ] } },
{ "type": "Feature", "properties": { "Unnamed: 0": 160, "accdate": "18\/01\/2021", "address": "หน้าซุปเปอร์ชิปกะรน", "accplace": "จยย+จยย", "isdead": "N", "lat": 7.844268, "lng": 98.300786, "dead": "ไม่มีผู้เสียชีวิต", "inj": "มีผู้บาดเจ็บ" }, "geometry": { "type": "Point", "coordinates": [ 98.300786, 7.844268 ] } },
{ "type": "Feature", "properties": { "Unnamed: 0": 161, "accdate": "17\/01\/2021", "address": "หน้าหมู่บ้านภูเก็ตวิลล่า 3", "accplace": "ลื่นน้ำมันบนถนน", "isdead": "N", "lat": 7.857882, "lng": 98.3645, "dead": "ไม่มีผู้เสียชีวิต", "inj": "มีผู้บาดเจ็บ" }, "geometry": { "type": "Point", "coordinates": [ 98.3645, 7.857882 ] } },
{ "type": "Feature", "properties": { "Unnamed: 0": 162, "accdate": "24\/01\/2021", "address": "แยกราชภัฎภูเก็ต", "accplace": "ขับและโดยสาร จยย. ลื่นล้ม (ฝนตก)", "isdead": "N", "lat": 7.909281, "lng": 98.392509, "dead": "ไม่มีผู้เสียชีวิต", "inj": "มีผู้บาดเจ็บ" }, "geometry": { "type": "Point", "coordinates": [ 98.392509, 7.909281 ] } },
{ "type": "Feature", "properties": { "Unnamed: 0": 163, "accdate": "25\/01\/2021", "address": "วิลล่า 3", "accplace": "ขับ จยย .ล้มเอง", "isdead": "N", "lat": 7.856416, "lng": 98.365227, "dead": "ไม่มีผู้เสียชีวิต", "inj": "มีผู้บาดเจ็บ" }, "geometry": { "type": "Point", "coordinates": [ 98.365227, 7.856416 ] } },
{ "type": "Feature", "properties": { "Unnamed: 0": 164, "accdate": "24\/01\/2021", "address": "วงเวียนถนนนริศร", "accplace": "จยย. ล้มเอง", "isdead": "N", "lat": 7.883068, "lng": 98.387176, "dead": "ไม่มีผู้เสียชีวิต", "inj": "มีผู้บาดเจ็บ" }, "geometry": { "type": "Point", "coordinates": [ 98.387176, 7.883068 ] } },
{ "type": "Feature", "properties": { "Unnamed: 0": 165, "accdate": "25\/01\/2021", "address": "ควนดินแดง", "accplace": "ขับจยย ชน จยย", "isdead": "N", "lat": 7.929294, "lng": 98.390969, "dead": "ไม่มีผู้เสียชีวิต", "inj": "มีผู้บาดเจ็บ" }, "geometry": { "type": "Point", "coordinates": [ 98.390969, 7.929294 ] } },
{ "type": "Feature", "properties": { "Unnamed: 0": 166, "accdate": "21\/01\/2021", "address": "หน้าแมคโคร ถ.วิชิตสงคราม", "accplace": "MC ล้มเอง ขณะเดินทางกลับที่พักหลังเลิกงานจากห้างแมคโคร สาขาถ.วิชิตสงคราม กลับที่พักที่อิรวดี", "isdead": "N", "lat": 7.884353, "lng": 98.381454, "dead": "ไม่มีผู้เสียชีวิต", "inj": "มีผู้บาดเจ็บ" }, "geometry": { "type": "Point", "coordinates": [ 98.381454, 7.884353 ] } },
{ "type": "Feature", "properties": { "Unnamed: 0": 167, "accdate": "23\/01\/2021", "address": "ไชโยซีฟู้ด", "accplace": "ขับ จยย + จยย ", "isdead": "N", "lat": 7.8482516408139, "lng": 98.371479436754996, "dead": "ไม่มีผู้เสียชีวิต", "inj": "มีผู้บาดเจ็บ" }, "geometry": { "type": "Point", "coordinates": [ 98.371479436754996, 7.8482516408139 ] } },
{ "type": "Feature", "properties": { "Unnamed: 0": 168, "accdate": "23\/01\/2021", "address": "หน้าสวนหลวง", "accplace": null, "isdead": "N", "lat": 7.8704490661620996, "lng": 98.37198638916, "dead": "ไม่มีผู้เสียชีวิต", "inj": "มีผู้บาดเจ็บ" }, "geometry": { "type": "Point", "coordinates": [ 98.37198638916, 7.8704490661621 ] } },
{ "type": "Feature", "properties": { "Unnamed: 0": 169, "accdate": "14\/01\/2021", "address": "ทางเข้าวัดกะรน", "accplace": "ขับจยยล้มเอง", "isdead": "N", "lat": 7.847589, "lng": 98.297831, "dead": "ไม่มีผู้เสียชีวิต", "inj": "มีผู้บาดเจ็บ" }, "geometry": { "type": "Point", "coordinates": [ 98.297831, 7.847589 ] } },
{ "type": "Feature", "properties": { "Unnamed: 0": 170, "accdate": "25\/01\/2021", "address": "ทางขึ้นเขากะตะ", "accplace": "MC ล้มเอง", "isdead": "N", "lat": 7.836706, "lng": 98.348388, "dead": "ไม่มีผู้เสียชีวิต", "inj": "มีผู้บาดเจ็บ" }, "geometry": { "type": "Point", "coordinates": [ 98.348388, 7.836706 ] } },
{ "type": "Feature", "properties": { "Unnamed: 0": 171, "accdate": "23\/01\/2021", "address": "ท่าเรือรัษฏา", "accplace": "จยย+รถยนต์", "isdead": "N", "lat": 7.872611, "lng": 98.414211, "dead": "ไม่มีผู้เสียชีวิต", "inj": "มีผู้บาดเจ็บ" }, "geometry": { "type": "Point", "coordinates": [ 98.414211, 7.872611 ] } },
{ "type": "Feature", "properties": { "Unnamed: 0": 172, "accdate": "24\/01\/2021", "address": "ถนนหลังวัดฉลอง", "accplace": "พลัดตกจากรถขณะกำลังจอด", "isdead": "N", "lat": 7.847152, "lng": 98.335915, "dead": "ไม่มีผู้เสียชีวิต", "inj": "มีผู้บาดเจ็บ" }, "geometry": { "type": "Point", "coordinates": [ 98.335915, 7.847152 ] } },
{ "type": "Feature", "properties": { "Unnamed: 0": 173, "accdate": "25\/01\/2021", "address": "บริเวณ ม.ศรีสุชาติ2", "accplace": "จยย.ล้มเอง", "isdead": "N", "lat": 7.913911, "lng": 98.368686, "dead": "ไม่มีผู้เสียชีวิต", "inj": "มีผู้บาดเจ็บ" }, "geometry": { "type": "Point", "coordinates": [ 98.368686, 7.913911 ] } },
{ "type": "Feature", "properties": { "Unnamed: 0": 174, "accdate": "13\/01\/2021", "address": "หน้าโกรเซอรี่", "accplace": "เสียหลักล้ม", "isdead": "N", "lat": 7.8792749415010999, "lng": 98.398174457251997, "dead": "ไม่มีผู้เสียชีวิต", "inj": "มีผู้บาดเจ็บ" }, "geometry": { "type": "Point", "coordinates": [ 98.398174457251997, 7.8792749415011 ] } },
{ "type": "Feature", "properties": { "Unnamed: 0": 175, "accdate": "25\/01\/2021", "address": "เซเว่นกู้กู", "accplace": "จยย. ล้มเอง", "isdead": "N", "lat": 7.908365, "lng": 98.400128, "dead": "ไม่มีผู้เสียชีวิต", "inj": "มีผู้บาดเจ็บ" }, "geometry": { "type": "Point", "coordinates": [ 98.400128, 7.908365 ] } },
{ "type": "Feature", "properties": { "Unnamed: 0": 176, "accdate": "26\/01\/2021", "address": "ถนนศักดิเดช ซอย5", "accplace": "จยย ชน กระบะ", "isdead": "N", "lat": 7.872098, "lng": 98.379038, "dead": "ไม่มีผู้เสียชีวิต", "inj": "มีผู้บาดเจ็บ" }, "geometry": { "type": "Point", "coordinates": [ 98.379038, 7.872098 ] } },
{ "type": "Feature", "properties": { "Unnamed: 0": 177, "accdate": "26\/01\/2021", "address": "ศาลาประชาคม ซอยพะเนียงหมู่ 5", "accplace": "ขับจยย ล้มเอง ", "isdead": "N", "lat": 7.891258, "lng": 98.402469, "dead": "ไม่มีผู้เสียชีวิต", "inj": "มีผู้บาดเจ็บ" }, "geometry": { "type": "Point", "coordinates": [ 98.402469, 7.891258 ] } },
{ "type": "Feature", "properties": { "Unnamed: 0": 178, "accdate": "26\/01\/2021", "address": "หน้าปากน้ำซีฟู้ด", "accplace": "โดยสาร จยย.สามล้อพ่วง รถตกหลุมเสียหลักตกจากรถ", "isdead": "N", "lat": 7.896306, "lng": 98.409689, "dead": "ไม่มีผู้เสียชีวิต", "inj": "มีผู้บาดเจ็บ" }, "geometry": { "type": "Point", "coordinates": [ 98.409689, 7.896306 ] } },
{ "type": "Feature", "properties": { "Unnamed: 0": 179, "accdate": "20\/01\/2021", "address": "หน้าดีคอนโดกู้กู", "accplace": "จยย+รถยนต์", "isdead": "N", "lat": 7.906496, "lng": 98.403161, "dead": "ไม่มีผู้เสียชีวิต", "inj": "มีผู้บาดเจ็บ" }, "geometry": { "type": "Point", "coordinates": [ 98.403161, 7.906496 ] } },
{ "type": "Feature", "properties": { "Unnamed: 0": 180, "accdate": "20\/01\/2021", "address": "หน้า 7-11 วัดเทพฯ", "accplace": "เสียหลักล้ม", "isdead": "N", "lat": 7.859549, "lng": 98.369548, "dead": "ไม่มีผู้เสียชีวิต", "inj": "มีผู้บาดเจ็บ" }, "geometry": { "type": "Point", "coordinates": [ 98.369548, 7.859549 ] } },
{ "type": "Feature", "properties": { "Unnamed: 0": 181, "accdate": "22\/01\/2021", "address": "ควนดินแดง", "accplace": "จยย.ชนเกาะเหล็กกั้นขอบทาง", "isdead": "Y", "lat": 7.952754, "lng": 98.387898, "dead": "มีผู้เสียชีวิต", "inj": "มีผู้บาดเจ็บ" }, "geometry": { "type": "Point", "coordinates": [ 98.387898, 7.952754 ] } },
{ "type": "Feature", "properties": { "Unnamed: 0": 182, "accdate": "25\/01\/2021", "address": "แยกไฟแดงสนามสุรกุล", "accplace": "จยย. ชน กระบะ", "isdead": "N", "lat": 7.889035, "lng": 98.371029, "dead": "ไม่มีผู้เสียชีวิต", "inj": "มีผู้บาดเจ็บ" }, "geometry": { "type": "Point", "coordinates": [ 98.371029, 7.889035 ] } },
{ "type": "Feature", "properties": { "Unnamed: 0": 183, "accdate": "26\/01\/2021", "address": "ปั๊มเชลล์ บายพาส ขาออกเมือง", "accplace": "ขับ จยย. ชน เก๋ง", "isdead": "N", "lat": 7.913867, "lng": 98.367478, "dead": "ไม่มีผู้เสียชีวิต", "inj": "มีผู้บาดเจ็บ" }, "geometry": { "type": "Point", "coordinates": [ 98.367478, 7.913867 ] } },
{ "type": "Feature", "properties": { "Unnamed: 0": 184, "accdate": "27\/01\/2021", "address": "แยกไฟแดงโรงไฟฟ้าก่อนถึง บขส.ใหม่", "accplace": "ขับ จยย ล้มเอง", "isdead": "N", "lat": 7.917808, "lng": 98.394929, "dead": "ไม่มีผู้เสียชีวิต", "inj": "มีผู้บาดเจ็บ" }, "geometry": { "type": "Point", "coordinates": [ 98.394929, 7.917808 ] } },
{ "type": "Feature", "properties": { "Unnamed: 0": 185, "accdate": "27\/01\/2021", "address": "ร้านยาโอสถสวนหลวงเจ้าฟ้า", "accplace": "ขับ จยย ชน ประตูรถกระบะ ชน เก๋ง ", "isdead": "N", "lat": 7.874344, "lng": 98.378593, "dead": "ไม่มีผู้เสียชีวิต", "inj": "มีผู้บาดเจ็บ" }, "geometry": { "type": "Point", "coordinates": [ 98.378593, 7.874344 ] } },
{ "type": "Feature", "properties": { "Unnamed: 0": 186, "accdate": "27\/01\/2021", "address": "หน้าเทศบาลวิชิต", "accplace": "ซ้อน จยย. ชน จยย. ชน รถยนต์", "isdead": "N", "lat": 7.860105, "lng": 98.368104, "dead": "ไม่มีผู้เสียชีวิต", "inj": "มีผู้บาดเจ็บ" }, "geometry": { "type": "Point", "coordinates": [ 98.368104, 7.860105 ] } },
{ "type": "Feature", "properties": { "Unnamed: 0": 187, "accdate": "27\/01\/2021", "address": "หน้าเมธีของฝาก", "accplace": "ขับ จยย. ล้มเอง", "isdead": "N", "lat": 7.881668, "lng": 98.395361, "dead": "ไม่มีผู้เสียชีวิต", "inj": "มีผู้บาดเจ็บ" }, "geometry": { "type": "Point", "coordinates": [ 98.395361, 7.881668 ] } },
{ "type": "Feature", "properties": { "Unnamed: 0": 188, "accdate": "27\/01\/2021", "address": "แยกโลตัสสามกอง", "accplace": "ขับ จยย. ล้มเอง", "isdead": "N", "lat": 7.905618, "lng": 98.368108, "dead": "ไม่มีผู้เสียชีวิต", "inj": "มีผู้บาดเจ็บ" }, "geometry": { "type": "Point", "coordinates": [ 98.368108, 7.905618 ] } },
{ "type": "Feature", "properties": { "Unnamed: 0": 189, "accdate": "27\/01\/2021", "address": "แยกไทยหัว", "accplace": "จยย. มีรถกระบะเฉี่ยวชนแล้วหนี", "isdead": "N", "lat": 7.876988, "lng": 98.374455, "dead": "ไม่มีผู้เสียชีวิต", "inj": "มีผู้บาดเจ็บ" }, "geometry": { "type": "Point", "coordinates": [ 98.374455, 7.876988 ] } },
{ "type": "Feature", "properties": { "Unnamed: 0": 190, "accdate": "26\/01\/2021", "address": "ปากซอยฮับเอก", "accplace": "จยย.ล้มเอง", "isdead": "N", "lat": 7.878059, "lng": 98.390843, "dead": "ไม่มีผู้เสียชีวิต", "inj": "มีผู้บาดเจ็บ" }, "geometry": { "type": "Point", "coordinates": [ 98.390843, 7.878059 ] } },
{ "type": "Feature", "properties": { "Unnamed: 0": 191, "accdate": "26\/01\/2021", "address": "ทางไปในหาน", "accplace": "เสียหลักล้ม", "isdead": "N", "lat": 7.807765, "lng": 98.33723, "dead": "ไม่มีผู้เสียชีวิต", "inj": "มีผู้บาดเจ็บ" }, "geometry": { "type": "Point", "coordinates": [ 98.33723, 7.807765 ] } },
{ "type": "Feature", "properties": { "Unnamed: 0": 192, "accdate": "27\/01\/2021", "address": "หน้า รร.บ้านนาบอน", "accplace": "จยย+จยย", "isdead": "N", "lat": 7.8521060943604004, "lng": 98.354469299315994, "dead": "ไม่มีผู้เสียชีวิต", "inj": "มีผู้บาดเจ็บ" }, "geometry": { "type": "Point", "coordinates": [ 98.354469299315994, 7.8521060943604 ] } },
{ "type": "Feature", "properties": { "Unnamed: 0": 193, "accdate": "04\/01\/2021", "address": "ซอยบางชีเหล้า", "accplace": "ล้มเอง", "isdead": "N", "lat": 7.923488, "lng": 98.39727, "dead": "ไม่มีผู้เสียชีวิต", "inj": "มีผู้บาดเจ็บ" }, "geometry": { "type": "Point", "coordinates": [ 98.39727, 7.923488 ] } },
{ "type": "Feature", "properties": { "Unnamed: 0": 194, "accdate": "14\/01\/2021", "address": "แยกเทพอนุสรณ์", "accplace": "จยย+จยย", "isdead": "N", "lat": 7.851394, "lng": 98.354109, "dead": "ไม่มีผู้เสียชีวิต", "inj": "มีผู้บาดเจ็บ" }, "geometry": { "type": "Point", "coordinates": [ 98.354109, 7.851394 ] } },
{ "type": "Feature", "properties": { "Unnamed: 0": 195, "accdate": "24\/01\/2021", "address": "หน้าตำรวจท่องเที่ยว", "accplace": "ขับ จยย.ล้มเอง", "isdead": "N", "lat": 7.893497, "lng": 98.385553, "dead": "ไม่มีผู้เสียชีวิต", "inj": "มีผู้บาดเจ็บ" }, "geometry": { "type": "Point", "coordinates": [ 98.385553, 7.893497 ] } },
{ "type": "Feature", "properties": { "Unnamed: 0": 196, "accdate": "25\/01\/2021", "address": "ถนน มอ. ตัดใหม่", "accplace": "ขับ จยย.+จยย.", "isdead": "N", "lat": 7.847339, "lng": 98.382338, "dead": "ไม่มีผู้เสียชีวิต", "inj": "มีผู้บาดเจ็บ" }, "geometry": { "type": "Point", "coordinates": [ 98.382338, 7.847339 ] } },
{ "type": "Feature", "properties": { "Unnamed: 0": 197, "accdate": "26\/01\/2021", "address": "ปั้มปตท.วัดเทพ", "accplace": "ขับ จยย. ชน จยย. ชน จยย.", "isdead": "N", "lat": 7.859543, "lng": 98.366782, "dead": "ไม่มีผู้เสียชีวิต", "inj": "มีผู้บาดเจ็บ" }, "geometry": { "type": "Point", "coordinates": [ 98.366782, 7.859543 ] } },
{ "type": "Feature", "properties": { "Unnamed: 0": 198, "accdate": "28\/01\/2021", "address": "สี่เเยกโรงพยาบาลวชิระภูเก็ต", "accplace": "ขับ จยย.ชน จยย", "isdead": "N", "lat": 7.896885, "lng": 98.383901, "dead": "ไม่มีผู้เสียชีวิต", "inj": "มีผู้บาดเจ็บ" }, "geometry": { "type": "Point", "coordinates": [ 98.383901, 7.896885 ] } },
{ "type": "Feature", "properties": { "Unnamed: 0": 199, "accdate": "28\/01\/2021", "address": "หน้าพิสูจน์หลักฐาน ถ.เยาวราช", "accplace": "ขับ สามล้อพวง ชนเก๋ง", "isdead": "N", "lat": 7.893047, "lng": 98.385622, "dead": "ไม่มีผู้เสียชีวิต", "inj": "มีผู้บาดเจ็บ" }, "geometry": { "type": "Point", "coordinates": [ 98.385622, 7.893047 ] } },
{ "type": "Feature", "properties": { "Unnamed: 0": 200, "accdate": "28\/01\/2021", "address": "หน้าสำนักสงฆ์เกล็ดดาว", "accplace": "จยย. ล้มเอง", "isdead": "N", "lat": 7.854245, "lng": 98.320158, "dead": "ไม่มีผู้เสียชีวิต", "inj": "มีผู้บาดเจ็บ" }, "geometry": { "type": "Point", "coordinates": [ 98.320158, 7.854245 ] } },
{ "type": "Feature", "properties": { "Unnamed: 0": 201, "accdate": "28\/01\/2021", "address": "แยกดับเพลิง", "accplace": "ขับ จยย ล้มเอง", "isdead": "N", "lat": 7.909341, "lng": 98.399865, "dead": "ไม่มีผู้เสียชีวิต", "inj": "มีผู้บาดเจ็บ" }, "geometry": { "type": "Point", "coordinates": [ 98.399865, 7.909341 ] } },
{ "type": "Feature", "properties": { "Unnamed: 0": 202, "accdate": "28\/01\/2021", "address": "หน้าศูนย์ฟอร์ด", "accplace": "ขับ จยย ชน เก๋ง", "isdead": "N", "lat": 7.917265, "lng": 98.394528, "dead": "ไม่มีผู้เสียชีวิต", "inj": "มีผู้บาดเจ็บ" }, "geometry": { "type": "Point", "coordinates": [ 98.394528, 7.917265 ] } },
{ "type": "Feature", "properties": { "Unnamed: 0": 203, "accdate": "27\/01\/2021", "address": "หลังราชภัฎ", "accplace": "ล้มเอง", "isdead": "N", "lat": 7.909105, "lng": 98.388948, "dead": "ไม่มีผู้เสียชีวิต", "inj": "มีผู้บาดเจ็บ" }, "geometry": { "type": "Point", "coordinates": [ 98.388948, 7.909105 ] } },
{ "type": "Feature", "properties": { "Unnamed: 0": 204, "accdate": "27\/01\/2021", "address": "อ่าวมะขาม", "accplace": "MC ล้มเอง", "isdead": "N", "lat": 7.824152, "lng": 98.400425, "dead": "ไม่มีผู้เสียชีวิต", "inj": "มีผู้บาดเจ็บ" }, "geometry": { "type": "Point", "coordinates": [ 98.400425, 7.824152 ] } },
{ "type": "Feature", "properties": { "Unnamed: 0": 205, "accdate": "27\/01\/2021", "address": "โรงไฟฟ้าฉลอง", "accplace": "จยย+รถยนต์เก๋ง", "isdead": "N", "lat": 7.85975, "lng": 98.342257, "dead": "ไม่มีผู้เสียชีวิต", "inj": "มีผู้บาดเจ็บ" }, "geometry": { "type": "Point", "coordinates": [ 98.342257, 7.85975 ] } },
{ "type": "Feature", "properties": { "Unnamed: 0": 206, "accdate": "27\/01\/2021", "address": "ป่าหล่าย", "accplace": "MC", "isdead": "N", "lat": 7.842838, "lng": 98.356673, "dead": "ไม่มีผู้เสียชีวิต", "inj": "มีผู้บาดเจ็บ" }, "geometry": { "type": "Point", "coordinates": [ 98.356673, 7.842838 ] } },
{ "type": "Feature", "properties": { "Unnamed: 0": 207, "accdate": "28\/01\/2021", "address": "ควนวิจิตร", "accplace": "ล้มเอง", "isdead": "N", "lat": 7.792695, "lng": 98.332686, "dead": "ไม่มีผู้เสียชีวิต", "inj": "มีผู้บาดเจ็บ" }, "geometry": { "type": "Point", "coordinates": [ 98.332686, 7.792695 ] } },
{ "type": "Feature", "properties": { "Unnamed: 0": 208, "accdate": "28\/01\/2021", "address": "อนามัยแหลมชั่น", "accplace": "จยย.ล้มเอง", "isdead": "N", "lat": 7.861352, "lng": 98.373382, "dead": "ไม่มีผู้เสียชีวิต", "inj": "มีผู้บาดเจ็บ" }, "geometry": { "type": "Point", "coordinates": [ 98.373382, 7.861352 ] } },
{ "type": "Feature", "properties": { "Unnamed: 0": 209, "accdate": "24\/01\/2021", "address": "หลังวค.", "accplace": "ขับ จยย ชน กระบะ", "isdead": "N", "lat": 7.906179, "lng": 98.381335, "dead": "ไม่มีผู้เสียชีวิต", "inj": "มีผู้บาดเจ็บ" }, "geometry": { "type": "Point", "coordinates": [ 98.381335, 7.906179 ] } },
{ "type": "Feature", "properties": { "Unnamed: 0": 210, "accdate": "28\/01\/2021", "address": "หน้าหมู่บ้านแคลิฟอร์เนีย", "accplace": "จยย ล้มเอง", "isdead": "N", "lat": 7.861082, "lng": 98.361952, "dead": "ไม่มีผู้เสียชีวิต", "inj": "มีผู้บาดเจ็บ" }, "geometry": { "type": "Point", "coordinates": [ 98.361952, 7.861082 ] } },
{ "type": "Feature", "properties": { "Unnamed: 0": 211, "accdate": "29\/01\/2021", "address": "ปากซอยรุ่งระวี", "accplace": "ขับ จยย ชน จยย ", "isdead": "N", "lat": 7.899464, "lng": 98.383937, "dead": "ไม่มีผู้เสียชีวิต", "inj": "มีผู้บาดเจ็บ" }, "geometry": { "type": "Point", "coordinates": [ 98.383937, 7.899464 ] } },
{ "type": "Feature", "properties": { "Unnamed: 0": 212, "accdate": "29\/01\/2021", "address": "ศาลาประชาคม", "accplace": "ขับ จยย ล้มเอง", "isdead": "N", "lat": 7.891258, "lng": 98.402467, "dead": "ไม่มีผู้เสียชีวิต", "inj": "มีผู้บาดเจ็บ" }, "geometry": { "type": "Point", "coordinates": [ 98.402467, 7.891258 ] } },
{ "type": "Feature", "properties": { "Unnamed: 0": 213, "accdate": "25\/01\/2021", "address": "วัดหลวงปู่สุภา", "accplace": "MCA ล้มเอง ", "isdead": "N", "lat": 7.854833, "lng": 98.329705, "dead": "ไม่มีผู้เสียชีวิต", "inj": "มีผู้บาดเจ็บ" }, "geometry": { "type": "Point", "coordinates": [ 98.329705, 7.854833 ] } },
{ "type": "Feature", "properties": { "Unnamed: 0": 214, "accdate": "27\/01\/2021", "address": "วงเวียน 5 แยก ฉลอง", "accplace": "ขณะขับเข้าวงเวียน ได้มีรถยนต์ ชนท้าย พลิกคว่ำ", "isdead": "N", "lat": 7.822372, "lng": 98.339609, "dead": "ไม่มีผู้เสียชีวิต", "inj": "มีผู้บาดเจ็บ" }, "geometry": { "type": "Point", "coordinates": [ 98.339609, 7.822372 ] } },
{ "type": "Feature", "properties": { "Unnamed: 0": 215, "accdate": "27\/01\/2021", "address": "หน้าแมคโดนัล", "accplace": "MCA ล้มเอง ", "isdead": "N", "lat": 7.877303, "lng": 98.394276, "dead": "ไม่มีผู้เสียชีวิต", "inj": "มีผู้บาดเจ็บ" }, "geometry": { "type": "Point", "coordinates": [ 98.394276, 7.877303 ] } },
{ "type": "Feature", "properties": { "Unnamed: 0": 216, "accdate": "27\/01\/2021", "address": "หน้าโลตัส", "accplace": "MCA ล้มเอง", "isdead": "N", "lat": 7.85929, "lng": 98.365211, "dead": "ไม่มีผู้เสียชีวิต", "inj": "มีผู้บาดเจ็บ" }, "geometry": { "type": "Point", "coordinates": [ 98.365211, 7.85929 ] } },
{ "type": "Feature", "properties": { "Unnamed: 0": 217, "accdate": "28\/01\/2021", "address": "วงเวียนเมืองทอง", "accplace": "MCA ล้มเอง ", "isdead": "N", "lat": 7.859052, "lng": 98.376925, "dead": "ไม่มีผู้เสียชีวิต", "inj": "มีผู้บาดเจ็บ" }, "geometry": { "type": "Point", "coordinates": [ 98.376925, 7.859052 ] } },
{ "type": "Feature", "properties": { "Unnamed: 0": 218, "accdate": "28\/01\/2021", "address": "ปฎักซอย12", "accplace": "จยย.ล้มเอง", "isdead": "N", "lat": 7.831107, "lng": 98.301032, "dead": "ไม่มีผู้เสียชีวิต", "inj": "มีผู้บาดเจ็บ" }, "geometry": { "type": "Point", "coordinates": [ 98.301032, 7.831107 ] } },
{ "type": "Feature", "properties": { "Unnamed: 0": 219, "accdate": "29\/01\/2021", "address": "แยกถนนเมืองทุ่งทอง-ถนนเหมืองเจ้าฟ้า", "accplace": "MC+CAR", "isdead": "N", "lat": 7.901017, "lng": 98.340319, "dead": "ไม่มีผู้เสียชีวิต", "inj": "มีผู้บาดเจ็บ" }, "geometry": { "type": "Point", "coordinates": [ 98.340319, 7.901017 ] } },
{ "type": "Feature", "properties": { "Unnamed: 0": 220, "accdate": "29\/01\/2021", "address": "หน้าเทศบาลตำบลราไวย์", "accplace": "จยย.ล้มเอง", "isdead": "N", "lat": 7.770929, "lng": 98.318377, "dead": "ไม่มีผู้เสียชีวิต", "inj": "มีผู้บาดเจ็บ" }, "geometry": { "type": "Point", "coordinates": [ 98.318377, 7.770929 ] } },
{ "type": "Feature", "properties": { "Unnamed: 0": 221, "accdate": "25\/01\/2021", "address": "ทางขึ้นเขากะตะ", "accplace": "ขับ จยย. ล้มเอง", "isdead": "N", "lat": 7.836705, "lng": 98.348388, "dead": "ไม่มีผู้เสียชีวิต", "inj": "มีผู้บาดเจ็บ" }, "geometry": { "type": "Point", "coordinates": [ 98.348388, 7.836705 ] } },
{ "type": "Feature", "properties": { "Unnamed: 0": 222, "accdate": "29\/01\/2021", "address": "หน้ารร.บ้านน้ำบ่อ", "accplace": "ขับจยย ชน จยย", "isdead": "N", "lat": 7.842253, "lng": 98.389251, "dead": "ไม่มีผู้เสียชีวิต", "inj": "มีผู้บาดเจ็บ" }, "geometry": { "type": "Point", "coordinates": [ 98.389251, 7.842253 ] } },
{ "type": "Feature", "properties": { "Unnamed: 0": 223, "accdate": "29\/01\/2021", "address": "หน้าธ.กรุงเทพศูนยฟอร์ด", "accplace": "คนเดินถนน ชน จยย.", "isdead": "N", "lat": 7.887643, "lng": 98.390313, "dead": "ไม่มีผู้เสียชีวิต", "inj": "มีผู้บาดเจ็บ" }, "geometry": { "type": "Point", "coordinates": [ 98.390313, 7.887643 ] } },
{ "type": "Feature", "properties": { "Unnamed: 0": 224, "accdate": "30\/01\/2021", "address": "ปากซอยควนดินแดง", "accplace": "ขับจยย.ชน เก๋ง", "isdead": "N", "lat": 7.929289, "lng": 98.390974, "dead": "ไม่มีผู้เสียชีวิต", "inj": "มีผู้บาดเจ็บ" }, "geometry": { "type": "Point", "coordinates": [ 98.390974, 7.929289 ] } },
{ "type": "Feature", "properties": { "Unnamed: 0": 225, "accdate": "30\/01\/2021", "address": "หน้าบ้านซอยพะเนียง", "accplace": "Pt.กำลังสตาจ์รถสามล้อพวง เเล้วที่สตาจ์เเทงเท้า ", "isdead": "N", "lat": 7.915305, "lng": 98.372217, "dead": "ไม่มีผู้เสียชีวิต", "inj": "มีผู้บาดเจ็บ" }, "geometry": { "type": "Point", "coordinates": [ 98.372217, 7.915305 ] } },
{ "type": "Feature", "properties": { "Unnamed: 0": 226, "accdate": "30\/01\/2021", "address": "แยกโกมารภัจจ์", "accplace": "ขับ จยย. + เก๋ง", "isdead": "N", "lat": 7.895651, "lng": 98.387808, "dead": "ไม่มีผู้เสียชีวิต", "inj": "มีผู้บาดเจ็บ" }, "geometry": { "type": "Point", "coordinates": [ 98.387808, 7.895651 ] } },
{ "type": "Feature", "properties": { "Unnamed: 0": 227, "accdate": "30\/01\/2021", "address": "หน้าโรงเรียนนานาชาติเกาะแก้ว", "accplace": "ขับ จยย ล้มเอง", "isdead": "N", "lat": 7.922765, "lng": 98.394157, "dead": "ไม่มีผู้เสียชีวิต", "inj": "มีผู้บาดเจ็บ" }, "geometry": { "type": "Point", "coordinates": [ 98.394157, 7.922765 ] } },
{ "type": "Feature", "properties": { "Unnamed: 0": 228, "accdate": "31\/01\/2021", "address": "ชุปเปอร์ชิบกวางตุ้ง", "accplace": "ขับ จยย ล้มเอง", "isdead": "N", "lat": 7.864943, "lng": 98.379948, "dead": "ไม่มีผู้เสียชีวิต", "inj": "มีผู้บาดเจ็บ" }, "geometry": { "type": "Point", "coordinates": [ 98.379948, 7.864943 ] } },
{ "type": "Feature", "properties": { "Unnamed: 0": 229, "accdate": "27\/01\/2021", "address": "หน้า บขส.เก่า ตรงข้าม ธ.กสิกร", "accplace": "ขับ จยย ล้มเอง ", "isdead": "N", "lat": 7.884035, "lng": 98.395608, "dead": "ไม่มีผู้เสียชีวิต", "inj": "มีผู้บาดเจ็บ" }, "geometry": { "type": "Point", "coordinates": [ 98.395608, 7.884035 ] } },
{ "type": "Feature", "properties": { "Unnamed: 0": 230, "accdate": "31\/01\/2021", "address": "ทางแยกแมกโนเลีย ถ.เทพกระษัตรี", "accplace": "MCล้มเอง", "isdead": "N", "lat": 7.903416, "lng": 98.388181, "dead": "ไม่มีผู้เสียชีวิต", "inj": "มีผู้บาดเจ็บ" }, "geometry": { "type": "Point", "coordinates": [ 98.388181, 7.903416 ] } },
{ "type": "Feature", "properties": { "Unnamed: 0": 231, "accdate": "29\/01\/2021", "address": "หน้าโรงพยาบาลสัตว์รัตนาธิเบส", "accplace": "MC+MC", "isdead": "N", "lat": 7.854968, "lng": 98.357129, "dead": "ไม่มีผู้เสียชีวิต", "inj": "มีผู้บาดเจ็บ" }, "geometry": { "type": "Point", "coordinates": [ 98.357129, 7.854968 ] } },
{ "type": "Feature", "properties": { "Unnamed: 0": 232, "accdate": "01\/02\/2021", "address": "สรรพากร", "accplace": "จยย. ชน รถบัส ", "isdead": "N", "lat": 7.890343, "lng": 98.405414, "dead": "ไม่มีผู้เสียชีวิต", "inj": "มีผู้บาดเจ็บ" }, "geometry": { "type": "Point", "coordinates": [ 98.405414, 7.890343 ] } },
{ "type": "Feature", "properties": { "Unnamed: 0": 233, "accdate": "01\/02\/2021", "address": "จุดชมวิวเกาะสิเหร่", "accplace": "ขับ จยย.+ คนเดินเท้า", "isdead": "N", "lat": 7.871019, "lng": 98.432579, "dead": "ไม่มีผู้เสียชีวิต", "inj": "มีผู้บาดเจ็บ" }, "geometry": { "type": "Point", "coordinates": [ 98.432579, 7.871019 ] } },
{ "type": "Feature", "properties": { "Unnamed: 0": 234, "accdate": "31\/01\/2021", "address": "ถนนปฏักซอย9", "accplace": "ขับ จยย. ล้มเอง", "isdead": "N", "lat": 7.824828, "lng": 98.301546, "dead": "ไม่มีผู้เสียชีวิต", "inj": "มีผู้บาดเจ็บ" }, "geometry": { "type": "Point", "coordinates": [ 98.301546, 7.824828 ] } },
{ "type": "Feature", "properties": { "Unnamed: 0": 235, "accdate": "08\/01\/2021", "address": "4แยกหล่อโรง", "accplace": "จยย ล้มเอง", "isdead": "N", "lat": 7.883698, "lng": 98.381924, "dead": "ไม่มีผู้เสียชีวิต", "inj": "มีผู้บาดเจ็บ" }, "geometry": { "type": "Point", "coordinates": [ 98.381924, 7.883698 ] } },
{ "type": "Feature", "properties": { "Unnamed: 0": 236, "accdate": "29\/01\/2021", "address": "ซอยนากก หลัง ที่โอที", "accplace": "ล้มเอง", "isdead": "N", "lat": 7.856699, "lng": 98.338629, "dead": "ไม่มีผู้เสียชีวิต", "inj": "มีผู้บาดเจ็บ" }, "geometry": { "type": "Point", "coordinates": [ 98.338629, 7.856699 ] } },
{ "type": "Feature", "properties": { "Unnamed: 0": 237, "accdate": "30\/01\/2021", "address": "แคนดี้บาร์ อนามัยราไวย์", "accplace": "ล้มเอง", "isdead": "N", "lat": 7.781493, "lng": 98.329171, "dead": "ไม่มีผู้เสียชีวิต", "inj": "มีผู้บาดเจ็บ" }, "geometry": { "type": "Point", "coordinates": [ 98.329171, 7.781493 ] } },
{ "type": "Feature", "properties": { "Unnamed: 0": 238, "accdate": "30\/01\/2021", "address": "แยกไฟแดงกวนอู", "accplace": "จยย+จยย", "isdead": "N", "lat": 7.846735, "lng": 98.354518, "dead": "ไม่มีผู้เสียชีวิต", "inj": "มีผู้บาดเจ็บ" }, "geometry": { "type": "Point", "coordinates": [ 98.354518, 7.846735 ] } },
{ "type": "Feature", "properties": { "Unnamed: 0": 239, "accdate": "30\/01\/2021", "address": "ในวัดฉลอง", "accplace": "ล้มเอง", "isdead": "N", "lat": 7.84729, "lng": 98.336646, "dead": "ไม่มีผู้เสียชีวิต", "inj": "มีผู้บาดเจ็บ" }, "geometry": { "type": "Point", "coordinates": [ 98.336646, 7.84729 ] } },
{ "type": "Feature", "properties": { "Unnamed: 0": 240, "accdate": "30\/01\/2021", "address": "ซอยทรงคุณ", "accplace": "จยย+จยย", "isdead": "N", "lat": 7.849894, "lng": 98.358031, "dead": "ไม่มีผู้เสียชีวิต", "inj": "มีผู้บาดเจ็บ" }, "geometry": { "type": "Point", "coordinates": [ 98.358031, 7.849894 ] } },
{ "type": "Feature", "properties": { "Unnamed: 0": 241, "accdate": "31\/01\/2021", "address": "สามแยกไสยวน", "accplace": "จยย.ล้มเอง", "isdead": "N", "lat": 7.798236, "lng": 98.325759, "dead": "ไม่มีผู้เสียชีวิต", "inj": "มีผู้บาดเจ็บ" }, "geometry": { "type": "Point", "coordinates": [ 98.325759, 7.798236 ] } },
{ "type": "Feature", "properties": { "Unnamed: 0": 242, "accdate": "01\/02\/2021", "address": "กะตะบีช", "accplace": "MC ล้มเอง", "isdead": "N", "lat": 7.816742, "lng": 98.301342, "dead": "ไม่มีผู้เสียชีวิต", "inj": "มีผู้บาดเจ็บ" }, "geometry": { "type": "Point", "coordinates": [ 98.301342, 7.816742 ] } },
{ "type": "Feature", "properties": { "Unnamed: 0": 243, "accdate": "31\/01\/2021", "address": "หน้าหมู่บ้านวิลล่า 3", "accplace": "Mc ล้มเอง", "isdead": "N", "lat": 7.857875, "lng": 98.3645, "dead": "ไม่มีผู้เสียชีวิต", "inj": "มีผู้บาดเจ็บ" }, "geometry": { "type": "Point", "coordinates": [ 98.3645, 7.857875 ] } },
{ "type": "Feature", "properties": { "Unnamed: 0": 244, "accdate": "02\/02\/2021", "address": "ถนนบางกอก", "accplace": "ขับ จยย.ชน จยย.", "isdead": "N", "lat": 7.880136, "lng": 98.385322, "dead": "ไม่มีผู้เสียชีวิต", "inj": "มีผู้บาดเจ็บ" }, "geometry": { "type": "Point", "coordinates": [ 98.385322, 7.880136 ] } },
{ "type": "Feature", "properties": { "Unnamed: 0": 245, "accdate": "02\/02\/2021", "address": "หน้าปั้มเชลล์ ถนนเทพกระษัตรี", "accplace": "จยย ล้มเอง", "isdead": "N", "lat": 8.171481, "lng": 98.298786, "dead": "ไม่มีผู้เสียชีวิต", "inj": "มีผู้บาดเจ็บ" }, "geometry": { "type": "Point", "coordinates": [ 98.298786, 8.171481 ] } },
{ "type": "Feature", "properties": { "Unnamed: 0": 246, "accdate": "02\/02\/2021", "address": "สะพานเกาะผี", "accplace": "จยย ชน รถกระบะ", "isdead": "N", "lat": 7.863339, "lng": 98.389723, "dead": "ไม่มีผู้เสียชีวิต", "inj": "มีผู้บาดเจ็บ" }, "geometry": { "type": "Point", "coordinates": [ 98.389723, 7.863339 ] } },
{ "type": "Feature", "properties": { "Unnamed: 0": 247, "accdate": "01\/02\/2021", "address": "หมู่บ้านท็อปแลนด์", "accplace": "ขับมอเตอร์ไซด์และล้มลงไป", "isdead": "N", "lat": 7.919427, "lng": 98.374791, "dead": "ไม่มีผู้เสียชีวิต", "inj": "มีผู้บาดเจ็บ" }, "geometry": { "type": "Point", "coordinates": [ 98.374791, 7.919427 ] } },
{ "type": "Feature", "properties": { "Unnamed: 0": 248, "accdate": "31\/01\/2021", "address": "ซอยป่าหลาย", "accplace": "เสียหลักล้ม", "isdead": "N", "lat": 7.842838, "lng": 98.356673, "dead": "ไม่มีผู้เสียชีวิต", "inj": "มีผู้บาดเจ็บ" }, "geometry": { "type": "Point", "coordinates": [ 98.356673, 7.842838 ] } },
{ "type": "Feature", "properties": { "Unnamed: 0": 249, "accdate": "01\/02\/2021", "address": "หาดราไวย์", "accplace": "เดินถนน.+จยย", "isdead": "N", "lat": 7.772038, "lng": 98.321646, "dead": "ไม่มีผู้เสียชีวิต", "inj": "มีผู้บาดเจ็บ" }, "geometry": { "type": "Point", "coordinates": [ 98.321646, 7.772038 ] } },
{ "type": "Feature", "properties": { "Unnamed: 0": 250, "accdate": "01\/02\/2021", "address": "บขส.ใหม่", "accplace": null, "isdead": "N", "lat": 7.917799, "lng": 98.394942, "dead": "ไม่มีผู้เสียชีวิต", "inj": "มีผู้บาดเจ็บ" }, "geometry": { "type": "Point", "coordinates": [ 98.394942, 7.917799 ] } },
{ "type": "Feature", "properties": { "Unnamed: 0": 251, "accdate": "01\/02\/2021", "address": "ซอบปฏัก18", "accplace": "Pt ขับ MC ล้มเอง", "isdead": "N", "lat": 7.847169, "lng": 98.301671, "dead": "ไม่มีผู้เสียชีวิต", "inj": "มีผู้บาดเจ็บ" }, "geometry": { "type": "Point", "coordinates": [ 98.301671, 7.847169 ] } },
{ "type": "Feature", "properties": { "Unnamed: 0": 252, "accdate": "02\/02\/2021", "address": "ทางไป มอ.", "accplace": null, "isdead": "N", "lat": 7.847333, "lng": 98.382335, "dead": "ไม่มีผู้เสียชีวิต", "inj": "มีผู้บาดเจ็บ" }, "geometry": { "type": "Point", "coordinates": [ 98.382335, 7.847333 ] } },
{ "type": "Feature", "properties": { "Unnamed: 0": 253, "accdate": "10\/01\/2021", "address": "ก่อนถึงซอยกิ่งแก้ว การเคหะ", "accplace": "MCล้มเอง", "isdead": "N", "lat": 7.896335, "lng": 98.41376, "dead": "ไม่มีผู้เสียชีวิต", "inj": "มีผู้บาดเจ็บ" }, "geometry": { "type": "Point", "coordinates": [ 98.41376, 7.896335 ] } },
{ "type": "Feature", "properties": { "Unnamed: 0": 254, "accdate": "11\/01\/2021", "address": "ท่าเรือรัษฏา", "accplace": "MC ลื่นล้ม", "isdead": "N", "lat": 7.872691, "lng": 98.414235, "dead": "ไม่มีผู้เสียชีวิต", "inj": "มีผู้บาดเจ็บ" }, "geometry": { "type": "Point", "coordinates": [ 98.414235, 7.872691 ] } },
{ "type": "Feature", "properties": { "Unnamed: 0": 255, "accdate": "01\/02\/2021", "address": "ซอยธนูเทพ", "accplace": "อุบัติเหตุขับรถจักรยานยนต์เสียหลักล้ม", "isdead": "N", "lat": 7.8332285, "lng": 98.3462024, "dead": "ไม่มีผู้เสียชีวิต", "inj": "มีผู้บาดเจ็บ" }, "geometry": { "type": "Point", "coordinates": [ 98.3462024, 7.8332285 ] } },
{ "type": "Feature", "properties": { "Unnamed: 0": 256, "accdate": "03\/02\/2021", "address": "หน้ารร.บ้านสะปำ", "accplace": "ขับจยย.ชนรถเก๋ง", "isdead": "N", "lat": 7.936844, "lng": 98.394621, "dead": "ไม่มีผู้เสียชีวิต", "inj": "มีผู้บาดเจ็บ" }, "geometry": { "type": "Point", "coordinates": [ 98.394621, 7.936844 ] } },
{ "type": "Feature", "properties": { "Unnamed: 0": 257, "accdate": "02\/02\/2021", "address": "ทางขึ้นเขากะตะ", "accplace": "ขับ จยย ล้มเอง", "isdead": "N", "lat": 7.828785, "lng": 98.301351, "dead": "ไม่มีผู้เสียชีวิต", "inj": "มีผู้บาดเจ็บ" }, "geometry": { "type": "Point", "coordinates": [ 98.301351, 7.828785 ] } },
{ "type": "Feature", "properties": { "Unnamed: 0": 258, "accdate": "03\/02\/2021", "address": "หร้าโรงแรมภูคิตา", "accplace": "ขับ จยย ล้มเอง", "isdead": "N", "lat": 7.901936, "lng": 98.402835, "dead": "ไม่มีผู้เสียชีวิต", "inj": "มีผู้บาดเจ็บ" }, "geometry": { "type": "Point", "coordinates": [ 98.402835, 7.901936 ] } },
{ "type": "Feature", "properties": { "Unnamed: 0": 259, "accdate": "03\/02\/2021", "address": "ปากซอยแม่ขำ", "accplace": "จยย ล้มเอง", "isdead": "N", "lat": 7.909016, "lng": 98.39962, "dead": "ไม่มีผู้เสียชีวิต", "inj": "มีผู้บาดเจ็บ" }, "geometry": { "type": "Point", "coordinates": [ 98.39962, 7.909016 ] } },
{ "type": "Feature", "properties": { "Unnamed: 0": 260, "accdate": "03\/02\/2021", "address": "หน้าโรงแรมบูลมังกี้ สามกอง", "accplace": "ขับ จยย. ล้มเอง", "isdead": "N", "lat": 7.883909, "lng": 98.394449, "dead": "ไม่มีผู้เสียชีวิต", "inj": "มีผู้บาดเจ็บ" }, "geometry": { "type": "Point", "coordinates": [ 98.394449, 7.883909 ] } },
{ "type": "Feature", "properties": { "Unnamed: 0": 261, "accdate": "03\/02\/2021", "address": "หน้าเจริญอพาร์ทเม้นท์", "accplace": "ขับ จยย ชน จยย", "isdead": "N", "lat": 7.905534, "lng": 98.404738, "dead": "ไม่มีผู้เสียชีวิต", "inj": "มีผู้บาดเจ็บ" }, "geometry": { "type": "Point", "coordinates": [ 98.404738, 7.905534 ] } },
{ "type": "Feature", "properties": { "Unnamed: 0": 262, "accdate": "03\/02\/2021", "address": "ข้างวัดแสนสุข", "accplace": "ล้มเอง", "isdead": "N", "lat": 7.876443, "lng": 98.39783, "dead": "ไม่มีผู้เสียชีวิต", "inj": "มีผู้บาดเจ็บ" }, "geometry": { "type": "Point", "coordinates": [ 98.39783, 7.876443 ] } },
{ "type": "Feature", "properties": { "Unnamed: 0": 263, "accdate": "03\/02\/2021", "address": "ใสยวน", "accplace": "จยย.+จยย.", "isdead": "N", "lat": 7.80031, "lng": 98.32857, "dead": "ไม่มีผู้เสียชีวิต", "inj": "มีผู้บาดเจ็บ" }, "geometry": { "type": "Point", "coordinates": [ 98.32857, 7.80031 ] } },
{ "type": "Feature", "properties": { "Unnamed: 0": 264, "accdate": "31\/01\/2021", "address": "ยูเทรินบ้านวานิช", "accplace": "ขับจยย.แล้ววูบล้มเอง", "isdead": "N", "lat": 7.906531, "lng": 98.390078, "dead": "ไม่มีผู้เสียชีวิต", "inj": "มีผู้บาดเจ็บ" }, "geometry": { "type": "Point", "coordinates": [ 98.390078, 7.906531 ] } },
{ "type": "Feature", "properties": { "Unnamed: 0": 265, "accdate": "02\/02\/2021", "address": "หน้าบ้านบียอน", "accplace": "รถจักรยานยนต์เสียหลักล้ม", "isdead": "N", "lat": 7.892162, "lng": 98.36911, "dead": "ไม่มีผู้เสียชีวิต", "inj": "มีผู้บาดเจ็บ" }, "geometry": { "type": "Point", "coordinates": [ 98.36911, 7.892162 ] } },
{ "type": "Feature", "properties": { "Unnamed: 0": 266, "accdate": "02\/02\/2021", "address": "ถนนปฏัก ข้างโรงแรมซานโตซิง", "accplace": "ขับ จยย.ล้มเอง\r\n", "isdead": "N", "lat": 7.838246, "lng": 98.299159, "dead": "ไม่มีผู้เสียชีวิต", "inj": "มีผู้บาดเจ็บ" }, "geometry": { "type": "Point", "coordinates": [ 98.299159, 7.838246 ] } },
{ "type": "Feature", "properties": { "Unnamed: 0": 267, "accdate": "02\/02\/2021", "address": "ซอยไสยวน14", "accplace": "จยย+รถยนต์", "isdead": "N", "lat": 7.799128, "lng": 98.330183, "dead": "ไม่มีผู้เสียชีวิต", "inj": "มีผู้บาดเจ็บ" }, "geometry": { "type": "Point", "coordinates": [ 98.330183, 7.799128 ] } },
{ "type": "Feature", "properties": { "Unnamed: 0": 268, "accdate": "09\/01\/2021", "address": "แถวเขารัง", "accplace": "ลื่นล้ม MC", "isdead": "N", "lat": 7.892494, "lng": 98.381273, "dead": "ไม่มีผู้เสียชีวิต", "inj": "มีผู้บาดเจ็บ" }, "geometry": { "type": "Point", "coordinates": [ 98.381273, 7.892494 ] } },
{ "type": "Feature", "properties": { "Unnamed: 0": 269, "accdate": "02\/02\/2021", "address": "ที่แม็คโครสาขากะตะ", "accplace": "ล้มเอง เนื่องจากไม่ได้เอาขาตั้งขึ้น", "isdead": "N", "lat": 7.828111, "lng": 98.301324, "dead": "ไม่มีผู้เสียชีวิต", "inj": "มีผู้บาดเจ็บ" }, "geometry": { "type": "Point", "coordinates": [ 98.301324, 7.828111 ] } },
{ "type": "Feature", "properties": { "Unnamed: 0": 270, "accdate": "03\/02\/2021", "address": "ถนนบางกอก", "accplace": "จยย+รถยนต์", "isdead": "N", "lat": 7.880136, "lng": 98.385322, "dead": "ไม่มีผู้เสียชีวิต", "inj": "มีผู้บาดเจ็บ" }, "geometry": { "type": "Point", "coordinates": [ 98.385322, 7.880136 ] } },
{ "type": "Feature", "properties": { "Unnamed: 0": 271, "accdate": "02\/02\/2021", "address": "หน้าศาลากลาง", "accplace": "จยย+จยย", "isdead": "N", "lat": 7.890146, "lng": 98.398924, "dead": "ไม่มีผู้เสียชีวิต", "inj": "มีผู้บาดเจ็บ" }, "geometry": { "type": "Point", "coordinates": [ 98.398924, 7.890146 ] } },
{ "type": "Feature", "properties": { "Unnamed: 0": 272, "accdate": "02\/02\/2021", "address": "บางชีเหล้า", "accplace": "ขับ จยย ชน เสาไฟฟ้า", "isdead": "N", "lat": 7.923488, "lng": 98.39727, "dead": "ไม่มีผู้เสียชีวิต", "inj": "มีผู้บาดเจ็บ" }, "geometry": { "type": "Point", "coordinates": [ 98.39727, 7.923488 ] } },
{ "type": "Feature", "properties": { "Unnamed: 0": 273, "accdate": "03\/02\/2021", "address": "แยกโลตัสสามกอง", "accplace": "ขับ จยย ชน รถยนต์", "isdead": "N", "lat": 7.905899, "lng": 98.368658, "dead": "ไม่มีผู้เสียชีวิต", "inj": "มีผู้บาดเจ็บ" }, "geometry": { "type": "Point", "coordinates": [ 98.368658, 7.905899 ] } },
{ "type": "Feature", "properties": { "Unnamed: 0": 274, "accdate": "03\/02\/2021", "address": "ซอยรวมสิน", "accplace": "ขับ จยย.ล้มเอง", "isdead": "N", "lat": 7.861873, "lng": 98.381931, "dead": "ไม่มีผู้เสียชีวิต", "inj": "มีผู้บาดเจ็บ" }, "geometry": { "type": "Point", "coordinates": [ 98.381931, 7.861873 ] } },
{ "type": "Feature", "properties": { "Unnamed: 0": 275, "accdate": "04\/02\/2021", "address": "ซอยสุขสันติ", "accplace": "จยย. ล้มเอง", "isdead": "N", "lat": 7.89116, "lng": 98.377607, "dead": "ไม่มีผู้เสียชีวิต", "inj": "มีผู้บาดเจ็บ" }, "geometry": { "type": "Point", "coordinates": [ 98.377607, 7.89116 ] } },
{ "type": "Feature", "properties": { "Unnamed: 0": 276, "accdate": "04\/02\/2021", "address": "หน้าโรงไฟฟ้า", "accplace": "ซ้อน จยย.ล้มเอง", "isdead": "N", "lat": 7.915593, "lng": 98.393982, "dead": "ไม่มีผู้เสียชีวิต", "inj": "มีผู้บาดเจ็บ" }, "geometry": { "type": "Point", "coordinates": [ 98.393982, 7.915593 ] } },
{ "type": "Feature", "properties": { "Unnamed: 0": 277, "accdate": "04\/02\/2021", "address": "สามแยกถนนกระ", "accplace": "โดยสาร จยย ล้มเอง", "isdead": "N", "lat": 7.876188, "lng": 98.391854, "dead": "ไม่มีผู้เสียชีวิต", "inj": "มีผู้บาดเจ็บ" }, "geometry": { "type": "Point", "coordinates": [ 98.391854, 7.876188 ] } },
{ "type": "Feature", "properties": { "Unnamed: 0": 278, "accdate": "05\/02\/2021", "address": "เเยกโลตัสสามกอง", "accplace": "ขับ จยย ชน กระบะ", "isdead": "N", "lat": 7.905683, "lng": 98.367751, "dead": "ไม่มีผู้เสียชีวิต", "inj": "มีผู้บาดเจ็บ" }, "geometry": { "type": "Point", "coordinates": [ 98.367751, 7.905683 ] } },
{ "type": "Feature", "properties": { "Unnamed: 0": 279, "accdate": "31\/01\/2021", "address": "หลังราชภัฎ", "accplace": "จยย.+จยย.", "isdead": "N", "lat": 7.909105, "lng": 98.38895, "dead": "ไม่มีผู้เสียชีวิต", "inj": "มีผู้บาดเจ็บ" }, "geometry": { "type": "Point", "coordinates": [ 98.38895, 7.909105 ] } },
{ "type": "Feature", "properties": { "Unnamed: 0": 280, "accdate": "03\/02\/2021", "address": "หน้ารร เมอร์ลิน", "accplace": "จยย.+เก๋ง", "isdead": "N", "lat": 7.89032, "lng": 98.386764, "dead": "ไม่มีผู้เสียชีวิต", "inj": "มีผู้บาดเจ็บ" }, "geometry": { "type": "Point", "coordinates": [ 98.386764, 7.89032 ] } },
{ "type": "Feature", "properties": { "Unnamed: 0": 281, "accdate": "03\/02\/2021", "address": "หน้ารร เมอร์ลิน", "accplace": "ขับ จยย + เก๋ง ", "isdead": "N", "lat": 7.890315, "lng": 98.386768, "dead": "ไม่มีผู้เสียชีวิต", "inj": "มีผู้บาดเจ็บ" }, "geometry": { "type": "Point", "coordinates": [ 98.386768, 7.890315 ] } },
{ "type": "Feature", "properties": { "Unnamed: 0": 282, "accdate": "03\/02\/2021", "address": "กู้กู", "accplace": "แผลถลอก ปวดเท้าซ้าย", "isdead": "N", "lat": 7.908565, "lng": 98.400405, "dead": "ไม่มีผู้เสียชีวิต", "inj": "มีผู้บาดเจ็บ" }, "geometry": { "type": "Point", "coordinates": [ 98.400405, 7.908565 ] } },
{ "type": "Feature", "properties": { "Unnamed: 0": 283, "accdate": "03\/02\/2021", "address": "ซอบโคกโตนด", "accplace": "Pt ขับ จยย ล้มเอง", "isdead": "N", "lat": 7.816529, "lng": 98.30676, "dead": "ไม่มีผู้เสียชีวิต", "inj": "มีผู้บาดเจ็บ" }, "geometry": { "type": "Point", "coordinates": [ 98.30676, 7.816529 ] } },
{ "type": "Feature", "properties": { "Unnamed: 0": 284, "accdate": "02\/02\/2021", "address": "ไสยวน", "accplace": "จยย.ล้มเอง", "isdead": "N", "lat": 7.796887, "lng": 98.327226, "dead": "ไม่มีผู้เสียชีวิต", "inj": "มีผู้บาดเจ็บ" }, "geometry": { "type": "Point", "coordinates": [ 98.327226, 7.796887 ] } },
{ "type": "Feature", "properties": { "Unnamed: 0": 285, "accdate": "04\/02\/2021", "address": "โฮมโปรฉลอง", "accplace": "จยย.+จยย", "isdead": "N", "lat": 7.825129, "lng": 98.340064, "dead": "ไม่มีผู้เสียชีวิต", "inj": "มีผู้บาดเจ็บ" }, "geometry": { "type": "Point", "coordinates": [ 98.340064, 7.825129 ] } },
{ "type": "Feature", "properties": { "Unnamed: 0": 286, "accdate": "01\/02\/2021", "address": "หน้าเทศบาลวิชิต", "accplace": "เสียหลักล้ม  มีแผลที่ขาขวา", "isdead": "N", "lat": 7.860103, "lng": 98.368108, "dead": "ไม่มีผู้เสียชีวิต", "inj": "มีผู้บาดเจ็บ" }, "geometry": { "type": "Point", "coordinates": [ 98.368108, 7.860103 ] } },
{ "type": "Feature", "properties": { "Unnamed: 0": 287, "accdate": "01\/02\/2021", "address": "แยกเขารัง", "accplace": "ลื่นล้ม", "isdead": "N", "lat": 7.892304, "lng": 98.38142, "dead": "ไม่มีผู้เสียชีวิต", "inj": "มีผู้บาดเจ็บ" }, "geometry": { "type": "Point", "coordinates": [ 98.38142, 7.892304 ] } },
{ "type": "Feature", "properties": { "Unnamed: 0": 288, "accdate": "04\/02\/2021", "address": "เเยกเส้งโห", "accplace": "โดยสาร จยย.ชน จยย", "isdead": "N", "lat": 7.886138, "lng": 98.393213, "dead": "ไม่มีผู้เสียชีวิต", "inj": "มีผู้บาดเจ็บ" }, "geometry": { "type": "Point", "coordinates": [ 98.393213, 7.886138 ] } },
{ "type": "Feature", "properties": { "Unnamed: 0": 289, "accdate": "05\/02\/2021", "address": "ซุปเปอร์ชิปใหญ่", "accplace": "ขับ จยย ล้มเอง ", "isdead": "N", "lat": 7.920798, "lng": 98.394845, "dead": "ไม่มีผู้เสียชีวิต", "inj": "มีผู้บาดเจ็บ" }, "geometry": { "type": "Point", "coordinates": [ 98.394845, 7.920798 ] } },
{ "type": "Feature", "properties": { "Unnamed: 0": 290, "accdate": "05\/02\/2021", "address": "หน้าเทศบาลวิชิต", "accplace": "ขับ จยย. ชน จยย.", "isdead": "N", "lat": 7.860117, "lng": 98.368097, "dead": "ไม่มีผู้เสียชีวิต", "inj": "มีผู้บาดเจ็บ" }, "geometry": { "type": "Point", "coordinates": [ 98.368097, 7.860117 ] } },
{ "type": "Feature", "properties": { "Unnamed: 0": 291, "accdate": "05\/02\/2021", "address": "ก่อนถึงโรงแรมสิริ", "accplace": "ขับ จยย. ล้มเอง", "isdead": "N", "lat": 7.888207, "lng": 98.38658, "dead": "ไม่มีผู้เสียชีวิต", "inj": "มีผู้บาดเจ็บ" }, "geometry": { "type": "Point", "coordinates": [ 98.38658, 7.888207 ] } },
{ "type": "Feature", "properties": { "Unnamed: 0": 292, "accdate": "05\/02\/2021", "address": "แถว ถนนเยาวราช", "accplace": "จยย.เสียหลักล้มเอง", "isdead": "N", "lat": 7.901592, "lng": 98.379174, "dead": "ไม่มีผู้เสียชีวิต", "inj": "มีผู้บาดเจ็บ" }, "geometry": { "type": "Point", "coordinates": [ 98.379174, 7.901592 ] } },
{ "type": "Feature", "properties": { "Unnamed: 0": 293, "accdate": "05\/02\/2021", "address": "หน้าซอยสามัคคี 2 ใสยวน", "accplace": "ขับ จยย.+รถเก๋ง", "isdead": "N", "lat": 7.798254, "lng": 98.325761, "dead": "ไม่มีผู้เสียชีวิต", "inj": "มีผู้บาดเจ็บ" }, "geometry": { "type": "Point", "coordinates": [ 98.325761, 7.798254 ] } },
{ "type": "Feature", "properties": { "Unnamed: 0": 294, "accdate": "05\/02\/2021", "address": "แยกมิสเตอร์คอม", "accplace": "ขับ จยย. ล้มเอง", "isdead": "N", "lat": 7.880246, "lng": 98.380125, "dead": "ไม่มีผู้เสียชีวิต", "inj": "มีผู้บาดเจ็บ" }, "geometry": { "type": "Point", "coordinates": [ 98.380125, 7.880246 ] } },
{ "type": "Feature", "properties": { "Unnamed: 0": 295, "accdate": "06\/02\/2021", "address": "หน้าโรงพยาบาลวชิระภูเก็ต", "accplace": "ขับ จยย ล้มเอง", "isdead": "N", "lat": 7.896895, "lng": 98.383931, "dead": "ไม่มีผู้เสียชีวิต", "inj": "มีผู้บาดเจ็บ" }, "geometry": { "type": "Point", "coordinates": [ 98.383931, 7.896895 ] } },
{ "type": "Feature", "properties": { "Unnamed: 0": 296, "accdate": "07\/02\/2021", "address": "แถวกวางตุ้ง", "accplace": "ขับ จยย ล้มเอง", "isdead": "N", "lat": 7.863459, "lng": 98.379554, "dead": "ไม่มีผู้เสียชีวิต", "inj": "มีผู้บาดเจ็บ" }, "geometry": { "type": "Point", "coordinates": [ 98.379554, 7.863459 ] } },
{ "type": "Feature", "properties": { "Unnamed: 0": 297, "accdate": "07\/02\/2021", "address": "ในโรงแแรมเดอะนาคา", "accplace": "จยย ล้มเอง", "isdead": "N", "lat": 7.885465, "lng": 98.365612, "dead": "ไม่มีผู้เสียชีวิต", "inj": "มีผู้บาดเจ็บ" }, "geometry": { "type": "Point", "coordinates": [ 98.365612, 7.885465 ] } },
{ "type": "Feature", "properties": { "Unnamed: 0": 298, "accdate": "07\/02\/2021", "address": "หลังมหาวิทยาลัยราชภัฎภูเก็ต", "accplace": "ขับ จยย. ล้มเอง", "isdead": "N", "lat": 7.91225, "lng": 98.383764, "dead": "ไม่มีผู้เสียชีวิต", "inj": "มีผู้บาดเจ็บ" }, "geometry": { "type": "Point", "coordinates": [ 98.383764, 7.91225 ] } },
{ "type": "Feature", "properties": { "Unnamed: 0": 299, "accdate": "07\/02\/2021", "address": "หน้าชุปเปอร์ชิบใหญ่ขาเข้า", "accplace": "โดยสาร จยย ล้มเอง", "isdead": "N", "lat": 7.920791, "lng": 98.394853, "dead": "ไม่มีผู้เสียชีวิต", "inj": "มีผู้บาดเจ็บ" }, "geometry": { "type": "Point", "coordinates": [ 98.394853, 7.920791 ] } },
{ "type": "Feature", "properties": { "Unnamed: 0": 300, "accdate": "07\/02\/2021", "address": "แยกครัวสุชา", "accplace": "ขับ จยย ล้มเอง", "isdead": "N", "lat": 7.906793, "lng": 98.372776, "dead": "ไม่มีผู้เสียชีวิต", "inj": "มีผู้บาดเจ็บ" }, "geometry": { "type": "Point", "coordinates": [ 98.372776, 7.906793 ] } },
{ "type": "Feature", "properties": { "Unnamed: 0": 301, "accdate": "24\/01\/2021", "address": "หน้าร้านนายเหมือง", "accplace": "MCA ชนท้าน MCA", "isdead": "N", "lat": 7.8718316068360998, "lng": 98.393977805972, "dead": "ไม่มีผู้เสียชีวิต", "inj": "มีผู้บาดเจ็บ" }, "geometry": { "type": "Point", "coordinates": [ 98.393977805972, 7.8718316068361 ] } },
{ "type": "Feature", "properties": { "Unnamed: 0": 302, "accdate": "03\/02\/2021", "address": "หน้าห้องสมุดประชาชน", "accplace": "MCล้มเอง", "isdead": "N", "lat": 7.872821, "lng": 98.393892, "dead": "ไม่มีผู้เสียชีวิต", "inj": "มีผู้บาดเจ็บ" }, "geometry": { "type": "Point", "coordinates": [ 98.393892, 7.872821 ] } },
{ "type": "Feature", "properties": { "Unnamed: 0": 303, "accdate": "05\/02\/2021", "address": "ถ.เฉลิมพระเกียรติร.9 ฝั่งเข้าเมือง(หน้าร้านกี่หิ้น)", "accplace": "MCA+CAR เฉี่ยวชน ", "isdead": "N", "lat": 7.923909, "lng": 98.371912, "dead": "ไม่มีผู้เสียชีวิต", "inj": "มีผู้บาดเจ็บ" }, "geometry": { "type": "Point", "coordinates": [ 98.371912, 7.923909 ] } },
{ "type": "Feature", "properties": { "Unnamed: 0": 304, "accdate": "05\/02\/2021", "address": "เส้นบายพาส", "accplace": "ล้ม", "isdead": "N", "lat": 7.914869, "lng": 98.367994, "dead": "ไม่มีผู้เสียชีวิต", "inj": "มีผู้บาดเจ็บ" }, "geometry": { "type": "Point", "coordinates": [ 98.367994, 7.914869 ] } },
{ "type": "Feature", "properties": { "Unnamed: 0": 305, "accdate": "06\/02\/2021", "address": "บริเวณหน้าตลาดชิลล์วา", "accplace": "MC+CAR", "isdead": "N", "lat": 7.906911, "lng": 98.373335, "dead": "ไม่มีผู้เสียชีวิต", "inj": "มีผู้บาดเจ็บ" }, "geometry": { "type": "Point", "coordinates": [ 98.373335, 7.906911 ] } },
{ "type": "Feature", "properties": { "Unnamed: 0": 306, "accdate": "04\/02\/2021", "address": "หลังชุปเปอร์ชีป", "accplace": "จยย.ล้มเอง", "isdead": "N", "lat": 7.920789, "lng": 98.394856, "dead": "ไม่มีผู้เสียชีวิต", "inj": "มีผู้บาดเจ็บ" }, "geometry": { "type": "Point", "coordinates": [ 98.394856, 7.920789 ] } },
{ "type": "Feature", "properties": { "Unnamed: 0": 307, "accdate": "07\/02\/2021", "address": "แยกเทศบาลราไวย์", "accplace": "เสียหลักล้ม", "isdead": "N", "lat": 7.770959, "lng": 98.318414, "dead": "ไม่มีผู้เสียชีวิต", "inj": "มีผู้บาดเจ็บ" },